name,ascii_name,pop,timezone,country,lat,lng
Shanghai,Shanghai,22315474,Asia/Shanghai,CN,31.22222,121.45806
Beijing,Beijing,18960744,Asia/Shanghai,CN,39.9075,116.39723
Shenzhen,Shenzhen,17494398,Asia/Shanghai,CN,22.54554,114.0683
Guangzhou,Guangzhou,16096724,Asia/Shanghai,CN,23.11667,113.25
Kinshasa,Kinshasa,16000000,Africa/Kinshasa,CD,-4.32758,15.31357
Lagos,Lagos,15388000,Africa/Lagos,NG,6.45407,3.39467
Istanbul,Istanbul,14804116,Europe/Istanbul,TR,41.01384,28.94966
Chengdu,Chengdu,13568357,Asia/Shanghai,CN,30.66667,104.06667
Mumbai,Mumbai,12691836,Asia/Kolkata,IN,19.07283,72.88261
São Paulo,Sao Paulo,12400232,America/Sao_Paulo,BR,-23.5475,-46.63611
Mexico City,Mexico City,12294193,America/Mexico_City,MX,19.42847,-99.12766
Karachi,Karachi,11624219,Asia/Karachi,PK,24.8608,67.0104
Tianjin,Tianjin,11090314,Asia/Shanghai,CN,39.14222,117.17667
Delhi,Delhi,10927986,Asia/Kolkata,IN,28.65195,77.23149
Wuhan,Wuhan,10392693,Asia/Shanghai,CN,30.58333,114.26667
Moscow,Moscow,10381222,Europe/Moscow,RU,55.75222,37.61556
Dhaka,Dhaka,10356500,Asia/Dhaka,BD,23.7104,90.40744
Seoul,Seoul,10349312,Asia/Seoul,KR,37.566,126.9784
Dongguan,Dongguan,9644871,Asia/Shanghai,CN,23.01797,113.74866
Cairo,Cairo,9606916,Africa/Cairo,EG,30.06263,31.24967
Xi’an,Xi'an,9600000,Asia/Shanghai,CN,34.25833,108.92861
Nanjing,Nanjing,9314685,Asia/Shanghai,CN,32.06167,118.77778
Hangzhou,Hangzhou,9236032,Asia/Shanghai,CN,30.29365,120.16142
Foshan,Foshan,9042509,Asia/Shanghai,CN,23.02677,113.13148
Ho Chi Minh City,Ho Chi Minh City,8993082,Asia/Ho_Chi_Minh,VN,10.82302,106.62965
London,London,8961989,Europe/London,GB,51.50853,-0.12574
New York City,New York City,8804190,America/New_York,US,40.71427,-74.00597
Jakarta,Jakarta,8540121,Asia/Jakarta,ID,-6.21462,106.84513
Bengaluru,Bengaluru,8443675,Asia/Kolkata,IN,12.97194,77.59369
Tokyo,Tokyo,8336599,Asia/Tokyo,JP,35.6895,139.69171
Hanoi,Hanoi,8053663,Asia/Bangkok,VN,21.0245,105.84117
Taipei,Taipei,7871900,Asia/Taipei,TW,25.04776,121.53185
Lima,Lima,7737002,America/Lima,PE,-12.04318,-77.02824
Bogotá,Bogota,7674366,America/Bogota,CO,4.60971,-74.08175
Hong Kong,Hong Kong,7491609,Asia/Hong_Kong,HK,22.27832,114.17469
Chongqing,Chongqing,7457599,Asia/Shanghai,CN,29.56026,106.55771
Baghdad,Baghdad,7216000,Asia/Baghdad,IQ,33.34058,44.40088
Qingdao,Qingdao,7172451,Asia/Shanghai,CN,36.06488,120.38042
Tehran,Tehran,7153309,Asia/Tehran,IR,35.69439,51.42151
Shenyang,Shenyang,7050000,Asia/Shanghai,CN,41.79222,123.43278
Hyderābād,Hyderabad,6809970,Asia/Kolkata,IN,17.38405,78.45636
Rio de Janeiro,Rio de Janeiro,6747815,America/Sao_Paulo,BR,-22.90642,-43.18223
Suzhou,Suzhou,6715559,Asia/Shanghai,CN,31.30408,120.59538
Ahmedabad,Ahmedabad,6357693,Asia/Kolkata,IN,23.02579,72.58727
Abidjan,Abidjan,6321017,Africa/Abidjan,CI,5.35444,-4.00167
Lahore,Lahore,6310888,Asia/Karachi,PK,31.558,74.35071
Singapore,Singapore,5638700,Asia/Singapore,SG,1.28967,103.85007
Johannesburg,Johannesburg,5635127,Africa/Johannesburg,ZA,-26.20227,28.04363
Dar es Salaam,Dar es Salaam,5383728,Africa/Dar_es_Salaam,TZ,-6.82349,39.26951
Saint Petersburg,Saint Petersburg,5351935,Europe/Moscow,RU,59.93863,30.31413
Alexandria,Alexandria,5263542,Africa/Cairo,EG,31.20176,29.91582
Harbin,Harbin,5242897,Asia/Shanghai,CN,45.75,126.65
Sydney,Sydney,5231147,Australia/Sydney,AU,-33.86785,151.20732
Bangkok,Bangkok,5104476,Asia/Bangkok,TH,13.75398,100.50144
Hefei,Hefei,5050000,Asia/Shanghai,CN,31.86389,117.28083
Melbourne,Melbourne,4917750,Australia/Melbourne,AU,-37.814,144.96332
Dalian,Dalian,4913879,Asia/Shanghai,CN,38.91222,121.60222
Kano,Kano,4910000,Africa/Lagos,NG,12.00012,8.51672
Santiago,Santiago,4837295,America/Santiago,CL,-33.45694,-70.64827
Changchun,Changchun,4714996,Asia/Shanghai,CN,43.88,125.32278
Cape Town,Cape Town,4710000,Africa/Johannesburg,ZA,-33.92584,18.42322
Jeddah,Jeddah,4697000,Asia/Riyadh,SA,21.49012,39.18624
Chennai,Chennai,4681087,Asia/Kolkata,IN,13.08784,80.27847
Kolkata,Kolkata,4631392,Asia/Kolkata,IN,22.56263,88.36304
Xiamen,Xiamen,4617251,Asia/Shanghai,CN,24.47979,118.08187
Surat,Surat,4591246,Asia/Kolkata,IN,21.19594,72.83023
Yangon,Yangon,4477638,Asia/Yangon,MM,16.80528,96.15611
Kabul,Kabul,4434550,Asia/Kabul,AF,34.52813,69.17233
Nairobi,Nairobi,4397073,Africa/Nairobi,KE,-1.28333,36.81667
Wuxi,Wuxi,4396835,Asia/Shanghai,CN,31.56887,120.28857
Giza,Giza,4367343,Africa/Cairo,EG,30.00944,31.20861
Jinan,Jinan,4335989,Asia/Shanghai,CN,36.66833,116.99722
Taiyuan,Taiyuan,4303673,Asia/Shanghai,CN,37.86944,112.56028
Zhengzhou,Zhengzhou,4253913,Asia/Shanghai,CN,34.75778,113.64861
Bamako,Bamako,4227569,Africa/Bamako,ML,12.65,-8.0
Riyadh,Riyadh,4205961,Asia/Riyadh,SA,24.68773,46.72185
Shijiazhuang,Shijiazhuang,3938513,Asia/Shanghai,CN,38.04139,114.47861
Chattogram,Chattogram,3920222,Asia/Dhaka,BD,22.3384,91.83168
Los Angeles,Los Angeles,3898747,America/Los_Angeles,US,34.05223,-118.24368
Addis Ababa,Addis Ababa,3860000,Africa/Addis_Ababa,ET,9.02497,38.74689
Kunming,Kunming,3855346,Asia/Shanghai,CN,25.03889,102.71833
Zhongshan,Zhongshan,3841873,Asia/Shanghai,CN,22.52306,113.37912
Nanning,Nanning,3839800,Asia/Shanghai,CN,22.81667,108.31667
Shantou,Shantou,3838900,Asia/Shanghai,CN,23.35489,116.67876
Yokohama,Yokohama,3761630,Asia/Tokyo,JP,35.43333,139.65
Fuzhou,Fuzhou,3740000,Asia/Shanghai,CN,26.06139,119.30611
Ningbo,Ningbo,3731203,Asia/Shanghai,CN,29.87819,121.54945
Busan,Busan,3678555,Asia/Seoul,KR,35.10168,129.03004
Casablanca,Casablanca,3665954,Africa/Casablanca,MA,33.58831,-7.61138
Ibadan,Ibadan,3649000,Africa/Lagos,NG,7.37756,3.90591
Puyang,Puyang,3590000,Asia/Shanghai,CN,29.45679,119.88872
Ankara,Ankara,3517182,Europe/Istanbul,TR,39.91987,32.85427
Dubai,Dubai,3478300,Asia/Dubai,AE,25.07725,55.30927
Shiyan,Shiyan,3460000,Asia/Shanghai,CN,32.6475,110.77806
Berlin,Berlin,3426354,Europe/Berlin,DE,52.52437,13.41053
Tangshan,Tangshan,3372102,Asia/Shanghai,CN,39.63333,118.18333
Changzhou,Changzhou,3290918,Asia/Shanghai,CN,31.77359,119.95401
Madrid,Madrid,3255944,Europe/Madrid,ES,40.4165,-3.70256
Pyongyang,Pyongyang,3222000,Asia/Pyongyang,KP,39.03385,125.75432
Zibo,Zibo,3129228,Asia/Shanghai,CN,36.79056,118.06333
Pune,Pune,3124458,Asia/Kolkata,IN,18.51957,73.85535
Durban,Durban,3120282,Africa/Johannesburg,ZA,-29.8579,31.0292
Bursa,Bursa,3101833,Europe/Istanbul,TR,40.19559,29.06013
Changsha,Changsha,3093980,Asia/Shanghai,CN,28.19874,112.97087
Guiyang,Guiyang,3037159,Asia/Shanghai,CN,26.58333,106.71667
Ürümqi,UEruemqi,3029372,Asia/Urumqi,CN,43.80096,87.60046
Lanzhou,Lanzhou,3000000,Asia/Shanghai,CN,36.05701,103.83987
Caracas,Caracas,3000000,America/Caracas,VE,10.48801,-66.87919
Incheon,Incheon,2954955,Asia/Seoul,KR,37.45646,126.70515
Huizhou,Huizhou,2900113,Asia/Shanghai,CN,23.11147,114.41523
Buenos Aires,Buenos Aires,2891082,America/Argentina/Buenos_Aires,AR,-34.61315,-58.37723
Surabaya,Surabaya,2874314,Asia/Jakarta,ID,-7.24917,112.75083
Haikou,Haikou,2873358,Asia/Shanghai,CN,20.03421,110.34651
Kanpur,Kanpur,2823249,Asia/Kolkata,IN,26.46523,80.34975
Kyiv,Kyiv,2797553,Europe/Kyiv,UA,50.45466,30.5238
Quito,Quito,2781641,America/Guayaquil,EC,-0.22985,-78.52495
Luanda,Luanda,2776168,Africa/Luanda,AO,-8.83682,13.23432
Quezon City,Quezon City,2761720,Asia/Manila,PH,14.6488,121.0509
Osaka,Osaka,2753862,Asia/Tokyo,JP,34.69379,135.50107
Linyi,Linyi,2743843,Asia/Shanghai,CN,35.06306,118.34278
Baoding,Baoding,2739887,Asia/Shanghai,CN,38.87288,115.46246
Brooklyn,Brooklyn,2736074,America/New_York,US,40.6501,-73.94958
Guayaquil,Guayaquil,2723665,America/Guayaquil,EC,-2.19616,-79.88621
Belo Horizonte,Belo Horizonte,2721564,America/Sao_Paulo,BR,-19.92083,-43.93778
Salvador,Salvador,2711840,America/Bahia,BR,-12.97563,-38.49096
Jaipur,Jaipur,2711758,Asia/Kolkata,IN,26.91962,75.78781
Chicago,Chicago,2696555,America/Chicago,US,41.85003,-87.65005
Abuja,Abuja,2690000,Africa/Lagos,NG,9.05785,7.49508
Wenzhou,Wenzhou,2650000,Asia/Shanghai,CN,27.99942,120.66682
Dakar,Dakar,2646503,Africa/Dakar,SN,14.6937,-17.44406
Yunfu,Yunfu,2612800,Asia/Shanghai,CN,22.92787,112.03809
Navi Mumbai,Navi Mumbai,2600000,Asia/Kolkata,IN,19.03681,73.01582
Toronto,Toronto,2600000,America/Toronto,CA,43.70643,-79.39864
Mogadishu,Mogadishu,2587183,Africa/Mogadishu,SO,2.03711,45.34375
Brisbane,Brisbane,2582007,Australia/Brisbane,AU,-27.46794,153.02809
Daegu,Daegu,2566540,Asia/Seoul,KR,35.87028,128.59111
Bekasi,Bekasi,2564940,Asia/Jakarta,ID,-6.2349,106.9896
Kumasi,Kumasi,2544530,Africa/Accra,GH,6.68848,-1.62443
Faisalabad,Faisalabad,2506595,Asia/Karachi,PK,31.41554,73.08969
İzmir,Izmir,2500603,Europe/Istanbul,TR,38.41273,27.13838
Huai'an,Huai'an,2494013,Asia/Shanghai,CN,33.58861,119.01917
Lucknow,Lucknow,2472011,Asia/Kolkata,IN,26.83928,80.92313
Bandung,Bandung,2444160,Asia/Jakarta,ID,-6.92222,107.60694
Medan,Medan,2435252,Asia/Jakarta,ID,3.58333,98.66667
Ouagadougou,Ouagadougou,2415266,Africa/Ouagadougou,BF,12.36566,-1.53388
Fortaleza,Fortaleza,2400000,America/Fortaleza,BR,-3.71722,-38.54306
Cali,Cali,2392877,America/Bogota,CO,3.43722,-76.5225
Algiers,Algiers,2364230,Africa/Algiers,DZ,36.73225,3.08746
Nanchang,Nanchang,2357839,Asia/Shanghai,CN,28.68396,115.85306
Hohhot,Hohhot,2350000,Asia/Shanghai,CN,40.81056,111.65222
Rome,Rome,2318895,Europe/Rome,IT,41.89193,12.51133
Mashhad,Mashhad,2307177,Asia/Tehran,IR,36.29807,59.60567
Houston,Houston,2304580,America/Chicago,US,29.76328,-95.36327
Kowloon,Kowloon,2303100,Asia/Hong_Kong,HK,22.31667,114.18333
Shaoxing,Shaoxing,2300000,Asia/Shanghai,CN,30.00237,120.57864
Nantong,Nantong,2273326,Asia/Shanghai,CN,32.03028,120.87472
Queens,Queens,2272771,America/New_York,US,40.68149,-73.83652
Nagpur,Nagpur,2228018,Asia/Kolkata,IN,21.14631,79.08491
Yantai,Yantai,2227733,Asia/Shanghai,CN,37.47649,121.44081
Maracaibo,Maracaibo,2225000,America/Caracas,VE,10.66663,-71.61245
Lubumbashi,Lubumbashi,2221925,Africa/Lubumbashi,CD,-11.66089,27.47938
Manaus,Manaus,2219580,America/Manaus,BR,-3.10194,-60.025
Brasília,Brasilia,2207718,America/Sao_Paulo,BR,-15.77972,-47.92972
Zhuhai,Zhuhai,2207090,Asia/Shanghai,CN,22.27694,113.56778
Santo Domingo,Santo Domingo,2201941,America/Santo_Domingo,DO,18.47186,-69.89232
Perth,Perth,2192229,Australia/Perth,AU,-31.95224,115.8614
Nagoya,Nagoya,2191279,Asia/Tokyo,JP,35.18147,136.90641
Havana,Havana,2163824,America/Havana,CU,23.13302,-82.38304
Baotou,Baotou,2150000,Asia/Shanghai,CN,40.6516,109.84389
Paris,Paris,2138551,Europe/Paris,FR,48.85341,2.3488
Coimbatore,Coimbatore,2136916,Asia/Kolkata,IN,11.00555,76.96612
Port Harcourt,Port Harcourt,2120000,Africa/Lagos,NG,4.77742,7.0134
Mbuji-Mayi,Mbuji-Mayi,2101332,Africa/Lubumbashi,CD,-6.13603,23.58979
Aleppo,Aleppo,2098210,Asia/Damascus,SY,36.20124,37.16117
Kunshan,Kunshan,2092496,Asia/Shanghai,CN,31.37762,120.95431
Al Mawşil al Jadīdah,Al Mawsil al Jadidah,2065597,Asia/Baghdad,IQ,36.33271,43.10555
Depok,Depok,2056400,Asia/Jakarta,ID,-6.4,106.81861
Weifang,Weifang,2044028,Asia/Shanghai,CN,36.71,119.10194
Zunyi,Zunyi,2037775,Asia/Shanghai,CN,27.68667,106.90722
Al Başrah al Qadīmah,Al Basrah al Qadimah,2015483,Asia/Baghdad,IQ,30.50316,47.81507
La Paz,La Paz,2004652,America/La_Paz,BO,-16.5,-68.15
Lianyungang,Lianyungang,2001009,Asia/Shanghai,CN,34.59845,119.21556
Medellín,Medellin,1999979,America/Bogota,CO,6.25184,-75.56359
Brazzaville,Brazzaville,1982000,Africa/Brazzaville,CG,-4.26613,15.28318
Tashkent,Tashkent,1978028,Asia/Tashkent,UZ,41.26465,69.21627
Ganzhou,Ganzhou,1977253,Asia/Shanghai,CN,25.84664,114.9326
Almaty,Almaty,1977011,Asia/Almaty,KZ,43.25,76.91667
Khartoum,Khartoum,1974647,Africa/Khartoum,SD,15.55177,32.53241
Sapporo,Sapporo,1973832,Asia/Tokyo,JP,43.06667,141.35
Accra,Accra,1963264,Africa/Accra,GH,5.55602,-0.1969
Curitiba,Curitiba,1948626,America/Sao_Paulo,BR,-25.42778,-49.27306
Ordos,Ordos,1940653,Asia/Shanghai,CN,39.6086,109.78157
Sanaa,Sanaa,1937451,Asia/Aden,YE,15.35472,44.20667
Conakry,Conakry,1928389,Africa/Conakry,GN,9.53795,-13.67729
Tijuana,Tijuana,1922523,America/Tijuana,MX,32.5027,-117.00371
Beirut,Beirut,1916100,Asia/Beirut,LB,33.89332,35.50157
Tangerang,Tangerang,1911914,Asia/Jakarta,ID,-6.17806,106.63
Jieyang,Jieyang,1899394,Asia/Shanghai,CN,23.5418,116.36581
Jilin,Jilin,1895865,Asia/Shanghai,CN,43.85083,126.56028
Bucharest,Bucharest,1877155,Europe/Bucharest,RO,44.43225,26.10626
Camayenne,Camayenne,1871242,Africa/Conakry,GN,9.535,-13.68778
Kakamega,Kakamega,1867579,Africa/Nairobi,KE,0.28422,34.75229
Nanchong,Nanchong,1858875,Asia/Shanghai,CN,30.79508,106.08473
Kaduna,Kaduna,1850000,Africa/Lagos,NG,10.52641,7.43879
Datong,Datong,1850000,Asia/Shanghai,CN,40.09361,113.29139
Hamburg,Hamburg,1845229,Europe/Berlin,DE,53.55073,9.99302
Indore,Indore,1837041,Asia/Kolkata,IN,22.71792,75.8333
Santa Cruz de la Sierra,Santa Cruz de la Sierra,1831434,America/La_Paz,BO,-17.78629,-63.18117
Vadodara,Vadodara,1822221,Asia/Kolkata,IN,22.29941,73.20812
Iztapalapa,Iztapalapa,1815786,America/Mexico_City,MX,19.35529,-99.06224
Nanyang,Nanyang,1811812,Asia/Shanghai,CN,32.99472,112.53278
Gaziantep,Gaziantep,1808948,Europe/Istanbul,TR,37.05944,37.3825
Abu Dhabi,Abu Dhabi,1807000,Asia/Dubai,AE,24.45118,54.39696
Jiangmen,Jiangmen,1795459,Asia/Shanghai,CN,22.58333,113.08333
Diyarbakır,Diyarbakir,1791373,Europe/Istanbul,TR,37.91363,40.21721
Benin City,Benin City,1782000,Africa/Lagos,NG,6.33815,5.62575
Jiangyin,Jiangyin,1779515,Asia/Shanghai,CN,31.91102,120.26302
Adana,Adana,1779463,Europe/Istanbul,TR,36.98615,35.32531
Davao,Davao,1776949,Asia/Manila,PH,7.07306,125.61278
Fuyang,Fuyang,1768947,Asia/Shanghai,CN,32.9,115.81667
Montréal,Montreal,1762949,America/Toronto,CA,45.50884,-73.58781
Bayan Nur,Bayan Nur,1760000,Asia/Shanghai,CN,40.74143,107.38599
Maracay,Maracay,1754256,America/Caracas,VE,10.23535,-67.59113
Chaozhou,Chaozhou,1750945,Asia/Shanghai,CN,23.65396,116.62262
Rawalpindi,Rawalpindi,1743101,Asia/Karachi,PK,33.59733,73.0479
Minsk,Minsk,1742124,Europe/Minsk,BY,53.9,27.56667
Budapest,Budapest,1741041,Europe/Budapest,HU,47.49835,19.04045
Qingyuan,Qingyuan,1738424,Asia/Shanghai,CN,23.7,113.03333
Tai’an,Tai'an,1735425,Asia/Shanghai,CN,36.18528,117.12
León de los Aldama,Leon de los Aldama,1721199,America/Mexico_City,MX,21.12908,-101.67374
Warsaw,Warsaw,1702139,Europe/Warsaw,PL,52.22977,21.01178
Soweto,Soweto,1695047,Africa/Johannesburg,ZA,-26.26781,27.85849
Puebla,Puebla,1692181,America/Mexico_City,MX,19.03793,-98.20346
Vienna,Vienna,1691468,Europe/Vienna,AT,48.20849,16.37208
Mosul,Mosul,1683000,Asia/Baghdad,IQ,36.335,43.11889
Kallakurichi,Kallakurichi,1682687,Asia/Kolkata,IN,11.73379,78.95925
Xining,Xining,1677177,Asia/Shanghai,CN,36.62554,101.75739
Changshu,Changshu,1677050,Asia/Shanghai,CN,31.64615,120.74221
Palembang,Palembang,1668848,Asia/Jakarta,ID,-2.91673,104.7458
Huainan,Huainan,1666826,Asia/Shanghai,CN,32.62639,116.99694
Rabat,Rabat,1655753,Africa/Casablanca,MA,34.01325,-6.83255
Semarang,Semarang,1653524,Asia/Jakarta,ID,-6.99306,110.42083
Recife,Recife,1653461,America/Recife,BR,-8.05389,-34.88111
Suzhou,Suzhou,1647642,Asia/Shanghai,CN,33.63611,116.97889
Ecatepec de Morelos,Ecatepec de Morelos,1645352,America/Mexico_City,MX,19.60492,-99.06064
Lu’an,Lu'an,1644344,Asia/Shanghai,CN,31.73561,116.51688
Barcelona,Barcelona,1620343,Europe/Madrid,ES,41.38879,2.15899
Valencia,Valencia,1619470,America/Caracas,VE,10.16202,-68.00765
Pretoria,Pretoria,1619438,Africa/Johannesburg,ZA,-25.74486,28.18783
Yancheng,Yancheng,1615717,Asia/Shanghai,CN,33.3575,120.1573
Novosibirsk,Novosibirsk,1612833,Asia/Novosibirsk,RU,55.0415,82.9346
Erbil,Erbil,1612700,Asia/Baghdad,IQ,36.18333,44.01193
Phoenix,Phoenix,1608139,America/Phoenix,US,33.44838,-112.07404
Taizhou,Taizhou,1607108,Asia/Shanghai,CN,32.49069,119.90812
Daqing,Daqing,1604027,Asia/Shanghai,CN,46.58333,125.0
Fukuoka,Fukuoka,1603543,Asia/Tokyo,JP,33.6,130.41667
Manila,Manila,1600000,Asia/Manila,PH,14.6042,120.9822
Patna,Patna,1599920,Asia/Kolkata,IN,25.59408,85.13563
Bhopāl,Bhopal,1599914,Asia/Kolkata,IN,23.25469,77.40289
Wuhu,Wuhu,1598165,Asia/Shanghai,CN,31.35259,118.42947
Santiago de Querétaro,Santiago de Queretaro,1594212,America/Mexico_City,MX,20.58806,-100.38806
Dazhou,Dazhou,1589435,Asia/Shanghai,CN,31.2106,107.46308
Yangzhou,Yangzhou,1584237,Asia/Shanghai,CN,32.39722,119.43583
Mecca,Mecca,1578722,Asia/Riyadh,SA,21.42664,39.82563
Philadelphia,Philadelphia,1576251,America/New_York,US,39.95238,-75.16362
Phnom Penh,Phnom Penh,1573544,Asia/Phnom_Penh,KH,11.56245,104.91601
Guilin,Guilin,1572300,Asia/Shanghai,CN,25.28022,110.29639
Damascus,Damascus,1569394,Asia/Damascus,SY,33.5102,36.29128
Zhaoqing,Zhaoqing,1553109,Asia/Shanghai,CN,23.04893,112.46091
Onitsha,Onitsha,1553000,Africa/Lagos,NG,6.14978,6.78569
Mianyang,Mianyang,1550000,Asia/Shanghai,CN,31.46784,104.68168
Isfahan,Isfahan,1547164,Asia/Tehran,IR,32.65246,51.67462
Ludhiāna,Ludhiana,1545368,Asia/Kolkata,IN,30.91204,75.85379
Harare,Harare,1542813,Africa/Harare,ZW,-17.82772,31.05337
Monrovia,Monrovia,1542549,Africa/Monrovia,LR,6.30054,-10.7969
Putian,Putian,1539389,Asia/Shanghai,CN,25.43944,119.01028
Shangqiu,Shangqiu,1536392,Asia/Shanghai,CN,34.45,115.65
Goiânia,Goiania,1536097,America/Sao_Paulo,BR,-16.67861,-49.25389
Kawasaki,Kawasaki,1531646,Asia/Tokyo,JP,35.52056,139.71722
Kobe,Kobe,1522188,Asia/Tokyo,JP,34.6913,135.183
Kaohsiung,Kaohsiung,1519711,Asia/Taipei,TW,22.61626,120.31333
Stockholm,Stockholm,1515017,Europe/Stockholm,SE,59.32938,18.06871
Ciudad Juárez,Ciudad Juarez,1501551,America/Ciudad_Juarez,MX,31.72024,-106.46084
Khulna,Khulna,1500689,Asia/Dhaka,BD,22.80979,89.56439
Caloocan City,Caloocan City,1500000,Asia/Manila,PH,14.64953,120.96788
Belém,Belem,1499641,America/Belem,BR,-1.45583,-48.50444
Yekaterinburg,Yekaterinburg,1495066,Asia/Yekaterinburg,RU,56.8519,60.6122
Gwangju,Gwangju,1490092,Asia/Seoul,KR,35.15472,126.91556
Porto Alegre,Porto Alegre,1488252,America/Sao_Paulo,BR,-30.03283,-51.23019
Yinchuan,Yinchuan,1487579,Asia/Shanghai,CN,38.46806,106.27306
Manhattan,Manhattan,1487536,America/New_York,US,40.78343,-73.96625
Taizhou,Taizhou,1485502,Asia/Shanghai,CN,28.66266,121.43312
Asunción,Asuncion,1482200,America/Asuncion,PY,-25.28646,-57.647
Yiwu,Yiwu,1481384,Asia/Shanghai,CN,29.31506,120.07676
Zapopan,Zapopan,1476491,America/Mexico_City,MX,20.72356,-103.38479
Daejeon,Daejeon,1469543,Asia/Seoul,KR,36.34913,127.38493
Quanzhou,Quanzhou,1469157,Asia/Shanghai,CN,24.91389,118.58583
Madurai,Madurai,1465625,Asia/Kolkata,IN,9.919,78.11953
Jinhua,Jinhua,1463990,Asia/Shanghai,CN,29.10678,119.64421
Kyoto,Kyoto,1463723,Asia/Tokyo,JP,35.02107,135.75385
Cixi,Cixi,1457510,Asia/Shanghai,CN,30.1764,121.2457
Changde,Changde,1457419,Asia/Shanghai,CN,29.03205,111.69844
Kuala Lumpur,Kuala Lumpur,1453975,Asia/Kuala_Lumpur,MY,3.1412,101.68653
Kaifeng,Kaifeng,1451741,Asia/Shanghai,CN,34.7986,114.30742
Anshan,Anshan,1450000,Asia/Shanghai,CN,41.12361,122.99
Karaj,Karaj,1448075,Asia/Tehran,IR,35.83266,50.99155
Kathmandu,Kathmandu,1442271,Asia/Kathmandu,NP,27.70169,85.3206
Baoji,Baoji,1437802,Asia/Shanghai,CN,34.36775,107.23705
Suqian,Suqian,1437685,Asia/Shanghai,CN,33.94917,118.29583
Multan,Multan,1437230,Asia/Karachi,PK,30.19679,71.47824
Liuzhou,Liuzhou,1436599,Asia/Shanghai,CN,24.32405,109.40698
Tirunelveli,Tirunelveli,1435844,Asia/Kolkata,IN,8.72742,77.6838
San Antonio,San Antonio,1434625,America/Chicago,US,29.42412,-98.49363
Kharkiv,Kharkiv,1433886,Europe/Kyiv,UA,49.98081,36.25272
Zhangjiagang,Zhangjiagang,1432044,Asia/Shanghai,CN,31.865,120.53889
Agra,Agra,1430055,Asia/Kolkata,IN,27.18333,78.01667
Tabriz,Tabriz,1424641,Asia/Tehran,IR,38.08,46.2919
Makassar,Makassar,1423877,Asia/Makassar,ID,-5.14861,119.43194
Jinjiang,Jinjiang,1416151,Asia/Shanghai,CN,24.81978,118.57415
Bozhou,Bozhou,1409436,Asia/Shanghai,CN,33.87722,115.77028
Qujing,Qujing,1408500,Asia/Shanghai,CN,25.48333,103.78333
Zhanjiang,Zhanjiang,1400709,Asia/Shanghai,CN,21.23391,110.38749
Fushun,Fushun,1400646,Asia/Shanghai,CN,41.88669,123.94363
San Diego,San Diego,1394928,America/Los_Angeles,US,32.71571,-117.16472
Rājkot,Rajkot,1390640,Asia/Kolkata,IN,22.29161,70.79322
Luoyang,Luoyang,1390581,Asia/Shanghai,CN,34.68361,112.45361
Konya,Konya,1390051,Europe/Istanbul,TR,37.87135,32.48464
Adelaide,Adelaide,1387290,Australia/Adelaide,AU,-34.92866,138.59863
Hyderabad,Hyderabad,1386330,Asia/Karachi,PK,25.39689,68.37718
Guadalajara,Guadalajara,1385629,America/Mexico_City,MX,20.66682,-103.39182
The Bronx,The Bronx,1385108,America/New_York,US,40.84985,-73.86641
Gujranwala,Gujranwala,1384471,Asia/Karachi,PK,32.15567,74.18705
Guankou,Guankou,1380000,Asia/Shanghai,CN,28.15861,113.62709
Milan,Milan,1371498,Europe/Rome,IT,45.46427,9.18951
South Tangerang,South Tangerang,1365688,Asia/Jakarta,ID,-6.28862,106.71789
Najafgarh,Najafgarh,1365000,Asia/Kolkata,IN,28.60922,76.97982
N'Djamena,N'Djamena,1359526,Africa/Ndjamena,TD,12.10672,15.0444
Handan,Handan,1358318,Asia/Shanghai,CN,36.60999,114.48764
Kampala,Kampala,1353189,Africa/Kampala,UG,0.31628,32.58219
Yichang,Yichang,1350150,Asia/Shanghai,CN,30.71444,111.28472
Antananarivo,Antananarivo,1349501,Indian/Antananarivo,MG,-18.91368,47.53613
Heze,Heze,1346717,Asia/Shanghai,CN,35.23929,115.47358
Antalya,Antalya,1344000,Europe/Istanbul,TR,36.90812,30.69556
Abobo,Abobo,1340083,Africa/Abidjan,CI,5.41613,-4.0159
Jamshedpur,Jamshedpur,1339438,Asia/Kolkata,IN,22.80278,86.18545
Douala,Douala,1338082,Africa/Douala,CM,4.04827,9.70428
Basrah,Basrah,1326564,Asia/Baghdad,IQ,30.50852,47.7804
Saitama,Saitama,1324854,Asia/Tokyo,JP,35.90807,139.65657
Gorakhpur,Gorakhpur,1324570,Asia/Kolkata,IN,29.44768,75.67206
Niamey,Niamey,1323691,Africa/Niamey,NE,13.51366,2.1098
Liupanshui,Liupanshui,1320825,Asia/Shanghai,CN,26.59444,104.83333
Córdoba,Cordoba,1317298,America/Argentina/Cordoba,AR,-31.4135,-64.18105
Maoming,Maoming,1307802,Asia/Shanghai,CN,21.66625,110.91364
Tripoli,Tripoli,1302947,Africa/Tripoli,LY,32.88743,13.18733
Dallas,Dallas,1300092,America/Chicago,US,32.78306,-96.80667
Medina,Medina,1300000,Asia/Riyadh,SA,24.46861,39.61417
Callao,Callao,1300000,America/Lima,PE,-12.05659,-77.11814
Yaoundé,Yaounde,1299369,Africa/Douala,CM,3.86667,11.51667
Qinzhou,Qinzhou,1296300,Asia/Shanghai,CN,21.98247,108.65061
Luohe,Luohe,1294974,Asia/Shanghai,CN,33.56394,114.04272
Xiangyang,Xiangyang,1294733,Asia/Shanghai,CN,32.0422,112.14479
Yangjiang,Yangjiang,1292987,Asia/Shanghai,CN,21.85563,111.96272
Nashik,Nashik,1289497,Asia/Kolkata,IN,19.99727,73.79096
Yixing,Yixing,1285785,Asia/Shanghai,CN,31.36059,119.82016
Pimpri,Pimpri,1284606,Asia/Kolkata,IN,18.62292,73.80696
Amman,Amman,1275857,Asia/Amman,JO,31.95522,35.94503
Sharjah,Sharjah,1274749,Asia/Dubai,AE,25.33737,55.41206
Budta,Budta,1273715,Asia/Manila,PH,7.20417,124.43972
Belgrade,Belgrade,1273651,Europe/Belgrade,RS,44.80401,20.46513
Montevideo,Montevideo,1270737,America/Montevideo,UY,-34.90328,-56.18816
Lusaka,Lusaka,1267440,Africa/Lusaka,ZM,-15.40669,28.28713
Xuchang,Xuchang,1265536,Asia/Shanghai,CN,34.03189,113.86299
Kalyān,Kalyan,1262255,Asia/Kolkata,IN,19.2437,73.13554
Zigong,Zigong,1262064,Asia/Shanghai,CN,29.34162,104.77689
Thāne,Thane,1261517,Asia/Kolkata,IN,19.19704,72.96355
Munich,Munich,1260391,Europe/Berlin,DE,48.13743,11.57549
Nizhniy Novgorod,Nizhniy Novgorod,1259013,Europe/Moscow,RU,56.32867,44.00205
Jepara,Jepara,1257912,Asia/Jakarta,ID,-6.5924,110.671
Maputo,Maputo,1254837,Africa/Maputo,MZ,-25.96553,32.58322
Xuzhou,Xuzhou,1253991,Asia/Shanghai,CN,34.20442,117.28386
Dammam,Dammam,1252523,Asia/Riyadh,SA,26.43442,50.10326
Ra’s Bayrūt,Ra's Bayrut,1251739,Asia/Beirut,LB,33.9,35.48333
Neijiang,Neijiang,1251095,Asia/Shanghai,CN,29.58354,105.06216
Shiraz,Shiraz,1249942,Asia/Tehran,IR,29.61031,52.53113
Yiyang,Yiyang,1249807,Asia/Shanghai,CN,28.58917,112.32833
Kananga,Kananga,1247168,Africa/Lubumbashi,CD,-5.89624,22.41659
Kazan,Kazan,1243500,Europe/Moscow,RU,55.78874,49.12214
Suwon,Suwon,1241311,Asia/Seoul,KR,37.29111,127.00889
Jining,Jining,1241012,Asia/Shanghai,CN,35.405,116.58139
Barquisimeto,Barquisimeto,1240714,America/Caracas,VE,10.0647,-69.35703
Shubrā al Khaymah,Shubra al Khaymah,1240289,Africa/Cairo,EG,30.12511,31.25053
Port-au-Prince,Port-au-Prince,1234742,America/Port-au-Prince,HT,18.54349,-72.33881
Xinyang,Xinyang,1230042,Asia/Shanghai,CN,32.12278,114.06556
Liaocheng,Liaocheng,1229768,Asia/Shanghai,CN,36.45064,116.00247
Jinzhong,Jinzhong,1226617,Asia/Shanghai,CN,37.68403,112.75471
Meerut,Meerut,1223184,Asia/Kolkata,IN,28.98002,77.70636
Nowrangapur,Nowrangapur,1220946,Asia/Kolkata,IN,19.23114,82.54826
Faridabad,Faridabad,1220229,Asia/Kolkata,IN,28.41124,77.31316
Peshawar,Peshawar,1218773,Asia/Karachi,PK,34.008,71.57849
Karbala,Karbala,1218732,Asia/Baghdad,IQ,32.61603,44.02488
Changzhi,Changzhi,1214940,Asia/Shanghai,CN,36.18389,113.10528
Tianshui,Tianshui,1212791,Asia/Shanghai,CN,34.57952,105.74238
Mombasa,Mombasa,1208333,Africa/Nairobi,KE,-4.05466,39.66359
Mandalay,Mandalay,1208099,Asia/Yangon,MM,21.97473,96.08359
Barranquilla,Barranquilla,1206319,America/Bogota,CO,10.96854,-74.78132
Kayseri,Kayseri,1204641,Europe/Istanbul,TR,38.73222,35.48528
Chelyabinsk,Chelyabinsk,1202371,Asia/Yekaterinburg,RU,55.15402,61.42915
Mérida,Merida,1201000,America/Merida,MX,20.97537,-89.61696
Bulawayo,Bulawayo,1200337,Africa/Harare,ZW,-20.15,28.58333
Shymkent,Shymkent,1200000,Asia/Almaty,KZ,42.3,69.6
Omdurman,Omdurman,1200000,Africa/Khartoum,SD,15.64453,32.47773
Santiago de los Caballeros,Santiago de los Caballeros,1200000,America/Santo_Domingo,DO,19.4517,-70.69703
Hiroshima,Hiroshima,1199391,Asia/Tokyo,JP,34.4,132.45
Weinan,Weinan,1199290,Asia/Shanghai,CN,34.50355,109.50891
Ghāziābād,Ghaziabad,1199191,Asia/Kolkata,IN,28.66535,77.43915
Matola,Matola,1198988,Africa/Maputo,MZ,-25.96222,32.45889
Dhanbad,Dhanbad,1196214,Asia/Kolkata,IN,23.79759,86.42992
Dombivli,Dombivli,1193000,Asia/Kolkata,IN,19.21667,73.08333
Fes,Fes,1191905,Africa/Casablanca,MA,34.03313,-5.00028
Gustavo Adolfo Madero,Gustavo Adolfo Madero,1185772,America/Mexico_City,MX,19.49392,-99.11075
Nouakchott,Nouakchott,1184530,Africa/Nouakchott,MR,18.08581,-15.9785
Kisangani,Kisangani,1181788,Africa/Lubumbashi,CD,0.51528,25.19099
Jiaxing,Jiaxing,1180000,Asia/Shanghai,CN,30.7522,120.75
Omsk,Omsk,1172070,Asia/Omsk,RU,54.99244,73.36859
Guarulhos,Guarulhos,1169577,America/Sao_Paulo,BR,-23.46278,-46.53333
Bandar Lampung,Bandar Lampung,1166066,Asia/Jakarta,ID,-5.42917,105.26111
Prague,Prague,1165581,Europe/Prague,CZ,50.08804,14.42076
Varanasi,Varanasi,1164404,Asia/Kolkata,IN,25.31668,83.01041
Batam,Batam,1164352,Asia/Jakarta,ID,1.14937,104.02491
Jiujiang,Jiujiang,1164268,Asia/Shanghai,CN,29.70475,116.00206
Samara,Samara,1163399,Europe/Samara,RU,53.20007,50.15
Aba,Aba,1160000,Africa/Lagos,NG,5.10658,7.36667
Copenhagen,Copenhagen,1153615,Europe/Copenhagen,DK,55.67594,12.56553
Sofia,Sofia,1152556,Europe/Sofia,BG,42.69751,23.32415
Anyang,Anyang,1146839,Asia/Shanghai,CN,36.096,114.38278
Birmingham,Birmingham,1144919,Europe/London,GB,52.48142,-1.89983
Bijie,Bijie,1137383,Asia/Shanghai,CN,27.30193,105.28627
Monterrey,Monterrey,1135512,America/Monterrey,MX,25.67507,-100.31847
Kigali,Kigali,1132686,Africa/Kigali,RW,-1.94995,30.05885
Rostov-na-Donu,Rostov-na-Donu,1130305,Europe/Moscow,RU,47.23135,39.72328
Zhuzhou,Zhuzhou,1129687,Asia/Shanghai,CN,27.83333,113.15
Malingao,Malingao,1121974,Asia/Manila,PH,7.16083,124.475
Ufa,Ufa,1120547,Asia/Yekaterinburg,RU,54.74306,55.96779
Ranchi,Ranchi,1120374,Asia/Kolkata,IN,23.34316,85.3094
Baku,Baku,1116513,Asia/Baku,AZ,40.37767,49.89201
Shangrao,Shangrao,1116486,Asia/Shanghai,CN,28.45179,117.94287
Lilongwe,Lilongwe,1115815,Africa/Blantyre,MW,-13.96692,33.78725
Huaibei,Huaibei,1113321,Asia/Shanghai,CN,33.97444,116.79167
Maiduguri,Maiduguri,1110000,Africa/Lagos,NG,11.84692,13.15712
Meishan,Meishan,1107742,Asia/Shanghai,CN,30.04392,103.83696
Ciudad Nezahualcoyotl,Ciudad Nezahualcoyotl,1104585,America/Mexico_City,MX,19.40061,-99.01483
Mwanza,Mwanza,1104521,Africa/Dar_es_Salaam,TZ,-2.51667,32.9
Bogor,Bogor,1099422,Asia/Jakarta,ID,-6.59444,106.78917
Sendai,Sendai,1096704,Asia/Tokyo,JP,38.26667,140.86667
Yerevan,Yerevan,1093485,Asia/Yerevan,AM,40.18111,44.51361
Amritsar,Amritsar,1092450,Asia/Kolkata,IN,31.62234,74.87534
Krasnoyarsk,Krasnoyarsk,1090811,Asia/Krasnoyarsk,RU,56.01839,92.86717
Fuzhou,Fuzhou,1089888,Asia/Shanghai,CN,27.95999,116.33333
Guigang,Guigang,1086327,Asia/Shanghai,CN,23.11603,109.59472
Pekanbaru,Pekanbaru,1085000,Asia/Jakarta,ID,0.51667,101.44167
Ilorin,Ilorin,1080000,Africa/Lagos,NG,8.49664,4.54214
Hengyang,Hengyang,1075516,Asia/Shanghai,CN,26.88946,112.61888
Prayagraj,Prayagraj,1073438,Asia/Kolkata,IN,25.44478,81.84322
Goyang-si,Goyang-si,1073069,Asia/Seoul,KR,37.65639,126.835
Visakhapatnam,Visakhapatnam,1063178,Asia/Kolkata,IN,17.68009,83.20161
Yulin,Yulin,1056743,Asia/Shanghai,CN,22.6305,110.14686
Jingzhou,Jingzhou,1052282,Asia/Shanghai,CN,30.35028,112.19028
Port Elizabeth,Port Elizabeth,1050078,Africa/Johannesburg,ZA,-33.96109,25.61494
Tbilisi,Tbilisi,1049498,Asia/Tbilisi,GE,41.69411,44.83368
Voronezh,Voronezh,1047549,Europe/Moscow,RU,51.67204,39.1843
Xinxiang,Xinxiang,1047088,Asia/Shanghai,CN,35.19033,113.80151
Yichun,Yichun,1045952,Asia/Shanghai,CN,27.83333,114.4
Taichung,Taichung,1040725,Asia/Taipei,TW,24.1469,120.6839
Sokoto,Sokoto,1040000,Africa/Lagos,NG,13.06269,5.24322
Jos,Jos,1040000,Africa/Lagos,NG,9.92849,8.89212
Tangier,Tangier,1035141,Africa/Casablanca,MA,35.76727,-5.79975
Teni,Teni,1034724,Asia/Kolkata,IN,10.01115,77.47772
Xianyang,Xianyang,1034081,Asia/Shanghai,CN,34.33778,108.70261
Mexicali,Mexicali,1032686,America/Tijuana,MX,32.62781,-115.45446
Pointe-Noire,Pointe-Noire,1032000,Africa/Brazzaville,CG,-4.77609,11.86352
Seongnam-si,Seongnam-si,1031935,Asia/Seoul,KR,37.43861,127.13778
Maceió,Maceio,1031597,America/Maceio,BR,-9.66583,-35.73528
Campinas,Campinas,1031554,America/Sao_Paulo,BR,-22.90556,-47.06083
Sanya,Sanya,1031396,Asia/Shanghai,CN,18.25435,109.50947
Rangpur,Rangpur,1031388,Asia/Dhaka,BD,25.74664,89.25166
Kirkuk,Kirkuk,1031000,Asia/Baghdad,IQ,35.46806,44.39222
Jabalpur,Jabalpur,1030168,Asia/Kolkata,IN,23.16697,79.95006
Comilla,Comilla,1030000,Asia/Dhaka,BD,23.46186,91.18503
Shaoguan,Shaoguan,1028460,Asia/Shanghai,CN,24.8,113.58333
Hāora,Haora,1027672,Asia/Kolkata,IN,22.57688,88.31857
San Jose,San Jose,1026908,America/Los_Angeles,US,37.33939,-121.89496
Changwon,Changwon,1025702,Asia/Seoul,KR,35.22806,128.68111
Longyan,Longyan,1025087,Asia/Shanghai,CN,25.07485,117.01775
Dublin,Dublin,1024027,Europe/Dublin,IE,53.33306,-6.24889
Tiruchirappalli,Tiruchirappalli,1022518,Asia/Kolkata,IN,10.8155,78.69651
Yongzhou,Yongzhou,1020715,Asia/Shanghai,CN,26.42389,111.61306
Calgary,Calgary,1019942,America/Edmonton,CA,51.05011,-114.08529
Brussels,Brussels,1019022,Europe/Brussels,BE,50.85045,4.34878
Sambhaji Nagar,Sambhaji Nagar,1016441,Asia/Kolkata,IN,19.87757,75.34226
Huzhou,Huzhou,1015937,Asia/Shanghai,CN,30.8703,120.0933
Odesa,Odesa,1015826,Europe/Kyiv,UA,46.48572,30.74383
Volgograd,Volgograd,1013533,Europe/Volgograd,RU,48.71939,44.50183
Edmonton,Edmonton,1010899,America/Edmonton,CA,53.55014,-113.46871
Wuwei,Wuwei,1010295,Asia/Shanghai,CN,37.92672,102.63202
Namangan,Namangan,1010000,Asia/Tashkent,UZ,40.9983,71.67257
Arequipa,Arequipa,1008290,America/Lima,PE,-16.39889,-71.535
Hanzhong,Hanzhong,1006557,Asia/Shanghai,CN,33.07507,107.02214
Hezhou,Hezhou,1005490,Asia/Shanghai,CN,24.40357,111.56675
Shivaji Nagar,Shivaji Nagar,1000000,Asia/Kolkata,IN,18.53017,73.85263
Zhu Cheng City,Zhu Cheng City,1000000,Asia/Shanghai,CN,35.99502,119.40259
Dongying,Dongying,998968,Asia/Shanghai,CN,37.46271,118.49165
Luzhou,Luzhou,998900,Asia/Shanghai,CN,28.8903,105.42575
Sholapur,Sholapur,997281,Asia/Kolkata,IN,17.67152,75.91044
Marrakesh,Marrakesh,995871,Africa/Casablanca,MA,31.63416,-7.99994
Guatemala City,Guatemala City,994938,America/Guatemala,GT,14.64072,-90.51327
Meizhou,Meizhou,992351,Asia/Shanghai,CN,24.28859,116.11768
Yueyang,Yueyang,991465,Asia/Shanghai,CN,29.37455,113.09481
Laiwu,Laiwu,989535,Asia/Shanghai,CN,36.19278,117.65694
Da Nang,Da Nang,988561,Asia/Ho_Chi_Minh,VN,16.06778,108.22083
Benxi,Benxi,987717,Asia/Shanghai,CN,41.28861,123.765
Perm,Perm,982419,Asia/Yekaterinburg,RU,58.01046,56.25017
Zaria,Zaria,980000,Africa/Lagos,NG,11.11128,7.7227
Chiba,Chiba,979768,Asia/Tokyo,JP,35.6,140.11667
Pingdingshan,Pingdingshan,979130,Asia/Shanghai,CN,33.73847,113.30119
Srinagar,Srinagar,975857,Asia/Kolkata,IN,34.08565,74.80555
Managua,Managua,973087,America/Managua,NI,12.13282,-86.2504
Bengbu,Bengbu,972784,Asia/Shanghai,CN,32.94083,117.36083
Salé,Sale,972299,Africa/Casablanca,MA,34.0531,-6.79846
Jerusalem,Jerusalem,971800,Asia/Jerusalem,IL,31.76904,35.21633
Dnipro,Dnipro,968502,Europe/Kyiv,UA,48.46664,35.04066
Cebu City,Cebu City,964169,Asia/Manila,PH,10.31672,123.89071
Köln,Koeln,963395,Europe/Berlin,DE,50.93333,6.95
Tiruppur,Tiruppur,963173,Asia/Kolkata,IN,11.11541,77.35456
Ulsan,Ulsan,962865,Asia/Seoul,KR,35.53722,129.31667
Chandīgarh,Chandigarh,960787,Asia/Kolkata,IN,30.73629,76.7884
Xiangtan,Xiangtan,959303,Asia/Shanghai,CN,27.85,112.9
Linfen,Linfen,959198,Asia/Shanghai,CN,36.08889,111.51889
Victoria,Victoria,956800,Asia/Hong_Kong,HK,22.2875,114.14417
Jacksonville,Jacksonville,954614,America/New_York,US,30.33218,-81.65565
Zhenjiang,Zhenjiang,950516,Asia/Shanghai,CN,32.21086,119.45508
Ciudad Guayana,Ciudad Guayana,950000,America/Caracas,VE,8.35122,-62.64102
Enugu,Enugu,950000,Africa/Lagos,NG,6.44132,7.49883
Rosario,Rosario,948312,America/Argentina/Cordoba,AR,-32.94682,-60.63932
Sulţānah,Sultanah,946697,Asia/Riyadh,SA,24.49258,39.58572
Kitakyushu,Kitakyushu,940978,Asia/Tokyo,JP,33.85181,130.85034
Kingston,Kingston,937700,America/Jamaica,JM,17.99702,-76.79358
Baoshan,Baoshan,935618,Asia/Shanghai,CN,25.11626,99.16366
Austin,Austin,931830,America/Chicago,US,30.26715,-97.74306
Rui’an,Rui'an,927383,Asia/Shanghai,CN,27.77605,120.65859
Chihuahua,Chihuahua,925762,America/Chihuahua,MX,28.63528,-106.08889
Nay Pyi Taw,Nay Pyi Taw,925000,Asia/Yangon,MM,19.745,96.12972
Jodhpur,Jodhpur,921476,Asia/Kolkata,IN,26.26841,73.00594
Trujillo,Trujillo,919899,America/Lima,PE,-8.11599,-79.02998
Fort Worth,Fort Worth,918915,America/Chicago,US,32.72541,-97.32085
Salem,Salem,917414,Asia/Kolkata,IN,11.65376,78.15538
São Luís,Sao Luis,917237,America/Fortaleza,BR,-2.52972,-44.30278
Cartagena,Cartagena,914552,America/Bogota,CO,10.39972,-75.51444
Laibin,Laibin,910282,Asia/Shanghai,CN,23.74743,109.22222
Warri,Warri,910000,Africa/Lagos,NG,5.51737,5.75006
Naples,Naples,909048,Europe/Rome,IT,40.85216,14.26811
Padang,Padang,909040,Asia/Jakarta,ID,-0.94924,100.35427
Xiaogan,Xiaogan,908266,Asia/Shanghai,CN,30.92689,113.92221
Campo Grande,Campo Grande,906092,America/Campo_Grande,BR,-20.44278,-54.64639
Columbus,Columbus,905748,America/New_York,US,39.96118,-82.99879
Ziyang,Ziyang,905729,Asia/Shanghai,CN,30.12108,104.64811
Bobo-Dioulasso,Bobo-Dioulasso,904920,Africa/Ouagadougou,BF,11.17715,-4.2979
Quzhou,Quzhou,902767,Asia/Shanghai,CN,28.95944,118.86861
Blantyre,Blantyre,902588,Africa/Blantyre,MW,-15.78499,35.00854
Petaling Jaya,Petaling Jaya,902086,Asia/Kuala_Lumpur,MY,3.10726,101.60671
Donetsk,Donetsk,901645,Europe/Kyiv,UA,48.023,37.80224
Abū Ghurayb,Abu Ghurayb,900000,Asia/Baghdad,IQ,33.30563,44.18477
Qom,Qom,900000,Asia/Tehran,IR,34.6401,50.8764
Bishkek,Bishkek,900000,Asia/Bishkek,KG,42.87,74.59
Zaozhuang,Zaozhuang,899753,Asia/Shanghai,CN,34.86472,117.55417
Krasnodar,Krasnodar,899541,Europe/Moscow,RU,45.04484,38.97603
Guwahati,Guwahati,899094,Asia/Kolkata,IN,26.1844,91.7458
Eskişehir,Eskisehir,898369,Europe/Istanbul,TR,39.77667,30.52056
Natal,Natal,896708,America/Fortaleza,BR,-5.795,-35.20944
Pingxiang,Pingxiang,893550,Asia/Shanghai,CN,27.61672,113.85353
Indianapolis,Indianapolis,887642,America/Indiana/Indianapolis,US,39.76838,-86.15804
Zhoushan,Zhoushan,882932,Asia/Shanghai,CN,29.98869,122.20488
Gwalior,Gwalior,882458,Asia/Kolkata,IN,26.22983,78.17337
Qiqihar,Qiqihar,882364,Asia/Shanghai,CN,47.33922,123.96154
Klang,Klang,879867,Asia/Kuala_Lumpur,MY,3.03667,101.44333
As Sulaymānīyah,As Sulaymaniyah,878146,Asia/Baghdad,IQ,35.56496,45.4329
Puning,Puning,874954,Asia/Shanghai,CN,23.31072,116.16869
Vijayawada,Vijayawada,874587,Asia/Kolkata,IN,16.50745,80.6466
Charlotte,Charlotte,874579,America/New_York,US,35.22709,-80.84313
Pikine,Pikine,874062,Africa/Dakar,SN,14.76457,-17.39071
Bhiwandi,Bhiwandi,874032,Asia/Kolkata,IN,19.30023,73.05881
Teresina,Teresina,871126,America/Fortaleza,BR,-5.08917,-42.80194
Marseille,Marseille,870731,Europe/Paris,FR,43.29695,5.38107
Ankang,Ankang,870126,Asia/Shanghai,CN,32.68,109.01722
Mysore,Mysore,868313,Asia/Kolkata,IN,12.29791,76.63925
Langfang,Langfang,868066,Asia/Shanghai,CN,39.52079,116.71471
Jiaozuo,Jiaozuo,865413,Asia/Shanghai,CN,35.23972,113.23306
San Francisco,San Francisco,864816,America/Los_Angeles,US,37.77493,-122.41942
Liverpool,Liverpool,864122,Europe/London,GB,53.41058,-2.97794
Aden,Aden,863000,Asia/Aden,YE,12.77944,45.03667
Rohini,Rohini,860000,Asia/Kolkata,IN,28.74322,77.06778
Wanxian,Wanxian,859662,Asia/Shanghai,CN,30.81601,108.37407
Guang’an,Guang'an,858159,Asia/Shanghai,CN,30.47413,106.63696
Johor Bahru,Johor Bahru,858118,Asia/Kuala_Lumpur,MY,1.4655,103.7578
Kanayannur,Kanayannur,851406,Asia/Kolkata,IN,9.96667,76.26667
Tegucigalpa,Tegucigalpa,850848,America/Tegucigalpa,HN,14.0818,-87.20681
Bucheon-si,Bucheon-si,850731,Asia/Seoul,KR,37.49889,126.78306
Turin,Turin,847287,Europe/Rome,IT,45.07049,7.68682
Al Ain City,Al Ain City,846747,Asia/Dubai,AE,24.19167,55.76056
Cheongju-si,Cheongju-si,846291,Asia/Seoul,KR,36.63722,127.48972
Libreville,Libreville,846090,Africa/Libreville,GA,0.39241,9.45356
Saratov,Saratov,844858,Europe/Saratov,RU,51.54056,46.00861
Ulan Bator,Ulan Bator,844818,Asia/Ulaanbaatar,MN,47.90771,106.88324
Weihai,Weihai,844310,Asia/Shanghai,CN,37.50914,122.11356
Takeo,Takeo,843931,Asia/Phnom_Penh,KH,10.99081,104.78498
Malang,Malang,843810,Asia/Jakarta,ID,-7.9797,112.6304
Haiphong,Haiphong,841520,Asia/Bangkok,VN,20.86481,106.68345
Cochabamba,Cochabamba,841276,America/La_Paz,BO,-17.3895,-66.1568
Ahvaz,Ahvaz,841145,Asia/Tehran,IR,31.31901,48.6842
Hubli,Hubli,840214,Asia/Kolkata,IN,15.34776,75.13378
Ipoh,Ipoh,840000,Asia/Kuala_Lumpur,MY,4.5841,101.0829
Zhabei,Zhabei,840000,Asia/Shanghai,CN,31.25861,121.45972
Xinyu,Xinyu,839488,Asia/Shanghai,CN,27.80429,114.93335
Bhubaneswar,Bhubaneswar,837000,Asia/Kolkata,IN,20.27241,85.83385
Yibin,Yibin,836340,Asia/Shanghai,CN,28.7593,104.63994
Kampung Baru Subang,Kampung Baru Subang,833571,Asia/Kuala_Lumpur,MY,3.15,101.53333
Bouaké,Bouake,832371,Africa/Abidjan,CI,7.69385,-5.03031
Samarinda,Samarinda,831460,Asia/Makassar,ID,-0.49167,117.14583
Taicang,Taicang,831113,Asia/Shanghai,CN,31.44778,121.09389
Biên Hòa,Bien Hoa,830829,Asia/Ho_Chi_Minh,VN,10.94469,106.82432
Nova Iguaçu,Nova Iguacu,823302,America/Sao_Paulo,BR,-22.75917,-43.45111
Chenzhou,Chenzhou,822534,Asia/Shanghai,CN,25.8,113.03333
Duque de Caxias,Duque de Caxias,818329,America/Sao_Paulo,BR,-22.78556,-43.31167
João Pessoa,Joao Pessoa,817511,America/Fortaleza,BR,-7.115,-34.86306
Bukavu,Bukavu,816811,Africa/Lubumbashi,CD,-2.49077,28.84281
Barcelona,Barcelona,815141,America/Caracas,VE,10.13625,-64.68618
Bangui,Bangui,812407,Africa/Bangui,CF,4.36122,18.55496
Hermosillo,Hermosillo,812229,America/Hermosillo,MX,29.1026,-110.97732
Ottawa,Ottawa,812129,America/Toronto,CA,45.41117,-75.69812
Cần Thơ,Can Tho,812088,Asia/Ho_Chi_Minh,VN,10.03711,105.78825
Culiacán,Culiacan,808416,America/Mazatlan,MX,24.79032,-107.38782
Malatya,Malatya,806156,Europe/Istanbul,TR,38.35018,38.31667
Anqing,Anqing,804493,Asia/Shanghai,CN,30.51365,117.04723
Oran,Oran,803329,Africa/Algiers,DZ,35.69906,-0.63588
Freetown,Freetown,802639,Africa/Freetown,SL,8.48714,-13.2356
San Pedro Sula,San Pedro Sula,801259,America/Tegucigalpa,HN,15.50417,-88.025
Narela,Narela,800000,Asia/Kolkata,IN,28.85267,77.09288
Xingtai,Xingtai,798770,Asia/Shanghai,CN,37.06306,114.49417
Niigata,Niigata,797591,Asia/Tokyo,JP,37.92259,139.04125
Muscat,Muscat,797000,Asia/Muscat,OM,23.58413,58.40778
Zarqa,Zarqa,792665,Asia/Amman,JO,32.07275,36.08796
Valencia,Valencia,792492,Europe/Madrid,ES,39.47391,-0.37966
Naucalpan de Juárez,Naucalpan de Juarez,792211,America/Mexico_City,MX,19.47851,-99.23963
Çankaya,Cankaya,792189,Europe/Istanbul,TR,39.9179,32.86268
Hamamatsu,Hamamatsu,791707,Asia/Tokyo,JP,34.7,137.73333
Kolwezi,Kolwezi,790248,Africa/Lubumbashi,CD,-10.71484,25.46674
Rahim Yar Khan,Rahim Yar Khan,788915,Asia/Karachi,PK,28.41987,70.30345
Pasragad Branch,Pasragad Branch,787878,Asia/Tehran,IR,34.77772,48.47168
Zhaotong,Zhaotong,787845,Asia/Shanghai,CN,27.31667,103.71667
Panzhihua,Panzhihua,787177,Asia/Shanghai,CN,26.58509,101.71276
Jalandhar,Jalandhar,785178,Asia/Kolkata,IN,31.32556,75.57917
Thiruvananthapuram,Thiruvananthapuram,784153,Asia/Kolkata,IN,8.4855,76.94924
Chuzhou,Chuzhou,782671,Asia/Shanghai,CN,32.32194,118.29778
Sakai,Sakai,782339,Asia/Tokyo,JP,34.58216,135.46653
Port Said,Port Said,780515,Africa/Cairo,EG,31.26531,32.3019
Cúcuta,Cucuta,777106,America/Bogota,CO,7.89391,-72.50782
Homs,Homs,775404,Asia/Damascus,SY,34.72682,36.72339
Xuanzhou,Xuanzhou,774332,Asia/Shanghai,CN,30.9525,118.75528
Tainan,Tainan,771235,Asia/Taipei,TW,22.99083,120.21333
Nampula,Nampula,770379,Africa/Maputo,MZ,-15.11646,39.2666
Shangyu,Shangyu,770000,Asia/Shanghai,CN,30.01556,120.87111
Bujumbura,Bujumbura,769317,Africa/Bujumbura,BI,-3.38193,29.36142
Łódź,Lodz,768755,Europe/Warsaw,PL,51.77058,19.47395
Tyumen,Tyumen,768358,Asia/Yekaterinburg,RU,57.15222,65.52722
Erzurum,Erzurum,767848,Europe/Istanbul,TR,39.90861,41.27694
Kahrīz,Kahriz,766706,Asia/Tehran,IR,34.3838,47.0553
Anshun,Anshun,765313,Asia/Shanghai,CN,26.25,105.93333
Rājshāhi,Rajshahi,763580,Asia/Dhaka,BD,24.374,88.60114
Kota,Kota,763088,Asia/Kolkata,IN,25.18254,75.83907
Wuzhou,Wuzhou,761948,Asia/Shanghai,CN,23.48054,111.28848
Qinhuangdao,Qinhuangdao,759718,Asia/Shanghai,CN,39.93167,119.58833
Benghazi,Benghazi,757490,Africa/Tripoli,LY,32.11486,20.06859
Kraków,Krakow,755050,Europe/Warsaw,PL,50.06143,19.93658
Touba,Touba,753315,Africa/Dakar,SN,14.85,-15.88333
Alīgarh,Aligarh,753207,Asia/Kolkata,IN,27.88145,78.07464
Shaoyang,Shaoyang,753194,Asia/Shanghai,CN,27.23818,111.46214
Pietermaritzburg,Pietermaritzburg,750845,Africa/Johannesburg,ZA,-29.61679,30.39278
Lomé,Lome,749700,Africa/Lome,TG,6.12874,1.22154
Winnipeg,Winnipeg,749607,America/Winnipeg,CA,49.8844,-97.14704
Bağcılar,Bagcilar,749024,Europe/Istanbul,TR,41.03903,28.85671
Bareilly,Bareilly,745435,Asia/Kolkata,IN,28.36678,79.43167
Buraydah,Buraydah,745353,Asia/Riyadh,SA,26.32599,43.97497
São Bernardo do Campo,Sao Bernardo do Campo,743372,America/Sao_Paulo,BR,-23.69389,-46.565
Hegang,Hegang,743307,Asia/Shanghai,CN,47.34727,130.29033
Morelia,Morelia,743275,America/Mexico_City,MX,19.70078,-101.18443
Riga,Riga,742572,Europe/Riga,LV,56.946,24.10589
Amsterdam,Amsterdam,741636,Europe/Amsterdam,NL,52.37403,4.88969
Ma’anshan,Ma'anshan,741531,Asia/Shanghai,CN,31.68579,118.51008
Shah Alam,Shah Alam,740750,Asia/Kuala_Lumpur,MY,3.08507,101.53281
Kumamoto,Kumamoto,738907,Asia/Tokyo,JP,32.80589,130.69181
Seattle,Seattle,737015,America/Los_Angeles,US,47.60621,-122.33207
Oyo,Oyo,736072,Africa/Lagos,NG,7.85367,3.93235
Torreón,Torreon,735340,America/Monterrey,MX,25.54389,-103.41898
Deyang,Deyang,735070,Asia/Shanghai,CN,31.13019,104.38198
Abeokuta,Abeokuta,735000,Africa/Lagos,NG,7.15571,3.34509
Quetta,Quetta,733675,Asia/Karachi,PK,30.18414,67.00141
Yangquan,Yangquan,731228,Asia/Shanghai,CN,37.8575,113.56333
Akure,Akure,730000,Africa/Lagos,NG,7.25256,5.19312
São José dos Campos,Sao Jose dos Campos,729737,America/Sao_Paulo,BR,-23.17944,-45.88694
Ashgabat,Ashgabat,727700,Asia/Ashgabat,TM,37.95,58.38333
Álvaro Obregón,Alvaro Obregon,726664,America/Mexico_City,MX,19.35867,-99.20329
Denpasar,Denpasar,725314,Asia/Makassar,ID,-8.65,115.21667
Muzaffarābād,Muzaffarabad,725000,Asia/Karachi,PK,34.37002,73.47082
Wanzhou,Wanzhou,723215,Asia/Shanghai,CN,30.76451,108.39586
San Luis Potosí,San Luis Potosi,722772,America/Mexico_City,MX,22.14982,-100.97916
Aguascalientes,Aguascalientes,722250,America/Mexico_City,MX,21.88234,-102.28259
Zhumadian,Zhumadian,721670,Asia/Shanghai,CN,32.97944,114.02944
Morādābād,Moradabad,721139,Asia/Kolkata,IN,28.83893,78.77684
Okayama,Okayama,720841,Asia/Tokyo,JP,34.65,133.93333
Lviv,Lviv,717273,Europe/Kyiv,UA,49.83826,24.02324
Ansan-si,Ansan-si,716785,Asia/Seoul,KR,37.32361,126.82194
Denver,Denver,715522,America/Denver,US,39.73915,-104.9847
Ribeirão Preto,Ribeirao Preto,711825,America/Sao_Paulo,BR,-21.1775,-47.81028
Zaporizhzhya,Zaporizhzhya,710052,Europe/Kyiv,UA,47.85167,35.11714
Saltillo,Saltillo,709671,America/Monterrey,MX,25.42321,-101.0053
Latakia,Latakia,709000,Asia/Damascus,SY,35.53168,35.79011
Subang Jaya,Subang Jaya,708296,Asia/Kuala_Lumpur,MY,3.04384,101.58062
Tolyatti,Tolyatti,702879,Europe/Samara,RU,53.5303,49.3461
Jaboatão,Jaboatao,702621,America/Recife,BR,-8.18028,-35.00139
Santo Domingo Oeste,Santo Domingo Oeste,701269,America/Santo_Domingo,DO,18.5,-70.0
Santo Domingo Este,Santo Domingo Este,700000,America/Santo_Domingo,DO,18.48847,-69.85707
Battagram,Battagram,700000,Asia/Karachi,PK,34.67719,73.02329
Suez,Suez,699541,Africa/Cairo,EG,29.97371,32.52627
Changzhi,Changzhi,699514,Asia/Shanghai,CN,35.20889,111.73861
Agadir,Agadir,698310,Africa/Casablanca,MA,30.42018,-9.59815
General Santos,General Santos,697315,Asia/Manila,PH,6.11278,125.17167
Sarajevo,Sarajevo,696731,Europe/Sarajevo,BA,43.84864,18.35644
Balikpapan,Balikpapan,695287,Asia/Makassar,ID,-1.26753,116.82887
Bauchi,Bauchi,693700,Africa/Lagos,NG,10.31032,9.84388
Tunis,Tunis,693210,Africa/Tunis,TN,36.81897,10.16579
Zhangjiakou,Zhangjiakou,692602,Asia/Shanghai,CN,40.78341,114.87139
Serang,Serang,692101,Asia/Jakarta,ID,-6.11528,106.15417
Shizuoka,Shizuoka,690881,Asia/Tokyo,JP,34.98333,138.38333
Paranaque City,Paranaque City,689992,Asia/Manila,PH,14.48156,121.01749
Washington,Washington,689545,America/New_York,US,38.89511,-77.03637
Nashville,Nashville,689447,America/Chicago,US,36.16589,-86.78444
Fuxin,Fuxin,689050,Asia/Shanghai,CN,42.01556,121.65889
Ta’if,Ta'if,688693,Asia/Riyadh,SA,21.27028,40.41583
Huangshi,Huangshi,688090,Asia/Shanghai,CN,30.24706,115.04814
Liaoyang,Liaoyang,687890,Asia/Shanghai,CN,41.27194,123.17306
Beira,Beira,687764,Africa/Maputo,MZ,-19.84361,34.83889
Sorocaba,Sorocaba,687357,America/Sao_Paulo,BR,-23.50167,-47.45806
Baise,Baise,686078,Asia/Shanghai,CN,23.89013,106.62684
Situbondo,Situbondo,685967,Asia/Jakarta,ID,-7.70623,114.00976
Sevilla,Sevilla,684234,Europe/Madrid,ES,37.38283,-5.97317
Binzhou,Binzhou,682717,Asia/Shanghai,CN,37.36667,118.01667
El Paso,El Paso,681124,America/Denver,US,31.75872,-106.48693
Oklahoma City,Oklahoma City,681054,America/Chicago,US,35.46756,-97.51643
Yuncheng,Yuncheng,680036,Asia/Shanghai,CN,35.02306,110.99278
Raipur,Raipur,679995,Asia/Kolkata,IN,21.23333,81.63333
Dezhou,Dezhou,679535,Asia/Shanghai,CN,37.44661,116.36706
Dushanbe,Dushanbe,679400,Asia/Dushanbe,TJ,38.53575,68.77905
Cotonou,Cotonou,679012,Africa/Porto-Novo,BJ,6.36536,2.41833
Osasco,Osasco,677856,America/Sao_Paulo,BR,-23.5325,-46.79167
Detroit,Detroit,677116,America/Detroit,US,42.33143,-83.04575
Boston,Boston,675647,America/New_York,US,42.35843,-71.05977
Zaragoza,Zaragoza,675301,Europe/Madrid,ES,41.65606,-0.87734
Gorakhpur,Gorakhpur,674246,Asia/Kolkata,IN,26.76628,83.36889
Guadalupe,Guadalupe,673616,America/Monterrey,MX,25.67678,-100.25646
Acapulco de Juárez,Acapulco de Juarez,673479,America/Mexico_City,MX,16.84942,-99.90891
Katsina,Katsina,670000,Africa/Lagos,NG,12.99082,7.60177
Sanmenxia,Sanmenxia,669307,Asia/Shanghai,CN,34.77472,111.18139
E’zhou,E'zhou,668727,Asia/Shanghai,CN,30.39607,114.88655
Mississauga,Mississauga,668549,America/Toronto,CA,43.5789,-79.6583
Madīnat an Naşr,Madinat an Nasr,668413,Africa/Cairo,EG,30.06667,31.3
Tabuk,Tabuk,667000,Asia/Riyadh,SA,28.3998,36.57151
Cheonan,Cheonan,666417,Asia/Seoul,KR,36.8065,127.1522
Mudanjiang,Mudanjiang,665915,Asia/Shanghai,CN,44.54804,129.62594
Aracaju,Aracaju,664908,America/Maceio,BR,-10.91111,-37.07167
Athens,Athens,664046,Europe/Athens,GR,37.98376,23.72784
Zagreb,Zagreb,663592,Europe/Zagreb,HR,45.81444,15.97798
Leshan,Leshan,662814,Asia/Shanghai,CN,29.56227,103.76386
Santo André,Santo Andre,662373,America/Sao_Paulo,BR,-23.66389,-46.53833
Rizhao,Rizhao,661943,Asia/Shanghai,CN,35.41414,119.52908
Helsinki,Helsinki,658864,Europe/Helsinki,FI,60.16952,24.93545
Pontianak,Pontianak,658685,Asia/Pontianak,ID,-0.03194,109.325
Banjarmasin,Banjarmasin,657663,Asia/Makassar,ID,-3.31987,114.59075
Puducherry,Puducherry,657209,Asia/Kolkata,IN,11.93381,79.82979
Suining,Suining,656760,Asia/Shanghai,CN,30.50802,105.57332
Puyang,Puyang,655674,Asia/Shanghai,CN,35.76318,115.01721
Tlalnepantla,Tlalnepantla,653410,America/Mexico_City,MX,19.54005,-99.19538
Portland,Portland,652503,America/Los_Angeles,US,45.52345,-122.67621
Jeonju,Jeonju,652392,Asia/Seoul,KR,35.82194,127.14889
Frankfurt am Main,Frankfurt am Main,650000,Europe/Berlin,DE,50.11552,8.68417
Macau,Macau,649335,Asia/Macau,MO,22.20056,113.54611
Palermo,Palermo,648260,Europe/Rome,IT,38.1166,13.3636
Izhevsk,Izhevsk,648213,Europe/Samara,RU,56.84976,53.20448
Colombo,Colombo,648034,Asia/Colombo,LK,6.93548,79.84868
Maturín,Maturin,647459,America/Caracas,VE,9.74569,-63.18323
Osogbo,Osogbo,645000,Africa/Lagos,NG,7.77104,4.55698
Honchō,Honcho,644668,Asia/Tokyo,JP,35.70129,139.98648
Taguig,Taguig,644473,Asia/Manila,PH,14.5243,121.0792
New South Memphis,New South Memphis,641608,America/Chicago,US,35.08676,-90.05676
Hwaseong-si,Hwaseong-si,640890,Asia/Seoul,KR,37.20682,126.8169
Gold Coast,Gold Coast,640778,Australia/Brisbane,AU,-28.00029,153.43088
Kotli,Kotli,640000,Asia/Karachi,PK,33.51836,73.9022
Al Aḩmadī,Al Ahmadi,637411,Asia/Kuwait,KW,29.07694,48.08389
Cuenca,Cuenca,636996,America/Guayaquil,EC,-2.90055,-79.00453
Chisinau,Chisinau,635994,Europe/Chisinau,MD,47.00556,28.8575
Likasi,Likasi,635768,Africa/Lubumbashi,CD,-10.98303,26.7384
Wrocław,Wroclaw,634893,Europe/Warsaw,PL,51.1,17.03333
Hebi,Hebi,634721,Asia/Shanghai,CN,35.89917,114.1925
Tshikapa,Tshikapa,634529,Africa/Lubumbashi,CD,-6.41621,20.79995
Memphis,Memphis,633104,America/Chicago,US,35.14953,-90.04898
Jingmen,Jingmen,632954,Asia/Shanghai,CN,31.03361,112.20472
Barnaul,Barnaul,632372,Asia/Barnaul,RU,53.36056,83.76361
Dandong,Dandong,631973,Asia/Shanghai,CN,40.12917,124.39472
Stuttgart,Stuttgart,630305,Europe/Berlin,DE,48.78232,9.17702
Jaboatão dos Guararapes,Jaboatao dos Guararapes,630008,America/Recife,BR,-8.11278,-35.01472
Cancún,Cancun,628306,America/Cancun,MX,21.17429,-86.84656
Contagem,Contagem,627123,America/Sao_Paulo,BR,-19.93167,-44.05361
Ulyanovsk,Ulyanovsk,626540,Europe/Ulyanovsk,RU,54.32824,48.38657
Djibouti,Djibouti,626512,Africa/Djibouti,DJ,11.58901,43.14503
Glasgow,Glasgow,626410,Europe/London,GB,55.86515,-4.25763
Bhilai,Bhilai,625138,Asia/Kolkata,IN,21.20919,81.4285
Panshan,Panshan,625040,Asia/Shanghai,CN,41.18806,122.04944
Irkutsk,Irkutsk,623869,Asia/Irkutsk,RU,52.29778,104.29639
Las Vegas,Las Vegas,623747,America/Los_Angeles,US,36.17497,-115.13722
Al Mansurah,Al Mansurah,621953,Africa/Cairo,EG,31.03637,31.38069
Kermanshah,Kermanshah,621100,Asia/Tehran,IR,34.31417,47.065
Düsseldorf,Duesseldorf,620523,Europe/Berlin,DE,51.22172,6.77616
Coyoacán,Coyoacan,620416,America/Mexico_City,MX,19.3467,-99.16174
Feira de Santana,Feira de Santana,619609,America/Bahia,BR,-12.26667,-38.96667
Jiaozhou,Jiaozhou,619266,Asia/Shanghai,CN,36.28389,120.00333
Suizhou,Suizhou,618582,Asia/Shanghai,CN,31.71111,113.36306
Villa Nueva,Villa Nueva,618397,America/Guatemala,GT,14.52512,-90.58544
Khabarovsk,Khabarovsk,618150,Asia/Vladivostok,RU,48.48271,135.08379
Cuiabá,Cuiaba,618124,America/Cuiaba,BR,-15.59611,-56.09667
Al Ḩudaydah,Al Hudaydah,617871,Asia/Aden,YE,14.79781,42.95452
Arusha,Arusha,617631,Africa/Dar_es_Salaam,TZ,-3.36667,36.68333
Pasig City,Pasig City,617301,Asia/Manila,PH,14.58691,121.0614
Chizhou,Chizhou,615274,Asia/Shanghai,CN,30.66134,117.47783
Taiz,Taiz,615222,Asia/Aden,YE,13.57952,44.02091
Santa María Chimalhuacán,Santa Maria Chimalhuacan,612383,America/Mexico_City,MX,19.42155,-98.95038
Ya'an,Ya'an,612056,Asia/Shanghai,CN,29.98521,102.999
Borivli,Borivli,609617,Asia/Kolkata,IN,19.23496,72.85976
Yaroslavl,Yaroslavl,608722,Europe/Moscow,RU,57.62987,39.87368
Kawaguchi,Kawaguchi,607373,Asia/Tokyo,JP,35.80521,139.71072
Jambi City,Jambi City,606200,Asia/Jakarta,ID,-1.6,103.61667
Ha'il,Ha'il,605930,Asia/Riyadh,SA,27.52188,41.69073
Bhavnagar,Bhavnagar,605882,Asia/Kolkata,IN,21.76287,72.15331
Benoni,Benoni,605344,Africa/Johannesburg,ZA,-26.18848,28.32078
Vladivostok,Vladivostok,604901,Asia/Vladivostok,RU,43.10562,131.87353
Cochin,Cochin,604696,Asia/Kolkata,IN,9.93988,76.26022
Jinzhou,Jinzhou,604269,Asia/Shanghai,CN,41.10778,121.14167
Tuxtla,Tuxtla,604147,America/Mexico_City,MX,16.75973,-93.11308
Kryvyy Rih,Kryvyy Rih,603904,Europe/Kyiv,UA,47.90572,33.39404
Amrāvati,Amravati,603837,Asia/Kolkata,IN,20.93333,77.75
Sanming,Sanming,602166,Asia/Shanghai,CN,26.24861,117.61861
Islamabad,Islamabad,601600,Asia/Karachi,PK,33.72148,73.04329
Sāngli,Sangli,601214,Asia/Kolkata,IN,16.85438,74.56417
Lubango,Lubango,600751,Africa/Luanda,AO,-14.91717,13.4925
Milwaukee,Milwaukee,600155,America/Chicago,US,43.0389,-87.90647
Shuangyashan,Shuangyashan,600000,Asia/Shanghai,CN,46.67686,131.13273
Vancouver,Vancouver,600000,America/Vancouver,CA,49.24966,-123.11934
Rotterdam,Rotterdam,598199,Europe/Amsterdam,NL,51.9225,4.47917
Borama,Borama,597842,Africa/Mogadishu,SO,9.93611,43.18278
Großzschocher,Grosszschocher,597493,Europe/Berlin,DE,51.30147,12.32322
Kleinzschocher,Kleinzschocher,597493,Europe/Berlin,DE,51.31568,12.31979
Luancheng,Luancheng,597130,Asia/Shanghai,CN,37.88452,114.64629
Makhachkala,Makhachkala,596356,Europe/Moscow,RU,42.97638,47.50236
Anyang-si,Anyang-si,595644,Asia/Seoul,KR,37.3925,126.92694
Huambo,Huambo,595304,Africa/Luanda,AO,-12.77611,15.73917
Kagoshima,Kagoshima,595049,Asia/Tokyo,JP,31.56667,130.55
Rasht,Rasht,594590,Asia/Tehran,IR,37.27611,49.58862
Brampton,Brampton,593638,America/Toronto,CA,43.68341,-79.76633
Mar del Plata,Mar del Plata,593337,America/Argentina/Buenos_Aires,AR,-38.00042,-57.5562
Essen,Essen,593085,Europe/Berlin,DE,51.45657,7.01228
Al Maḩallah al Kubrá,Al Mahallah al Kubra,592573,Africa/Cairo,EG,30.97063,31.1669
Yingkou,Yingkou,591159,Asia/Shanghai,CN,40.66472,122.23176
Las Piñas,Las Pinas,590000,Asia/Manila,PH,14.45056,120.98278
Zhangzhou,Zhangzhou,589831,Asia/Shanghai,CN,24.51333,117.65556
Reynosa,Reynosa,589466,America/Matamoros,MX,26.08061,-98.28835
Thuận An,Thuan An,588616,Asia/Ho_Chi_Minh,VN,10.9239,106.71428
Dortmund,Dortmund,588462,Europe/Berlin,DE,51.51494,7.466
Londrina,Londrina,588125,America/Sao_Paulo,BR,-23.31028,-51.16278
Göteborg,Goeteborg,587549,Europe/Stockholm,SE,57.70716,11.96679
New Kingston,New Kingston,583958,America/Jamaica,JM,18.00747,-76.78319
Bucaramanga,Bucaramanga,581130,America/Bogota,CO,7.12539,-73.1198
Genoa,Genoa,580097,Europe/Rome,IT,44.40478,8.94439
Cuttack,Cuttack,580000,Asia/Kolkata,IN,20.46497,85.87927
Oslo,Oslo,580000,Europe/Oslo,NO,59.91273,10.74609
Malacca,Malacca,579000,Asia/Kuala_Lumpur,MY,2.196,102.2405
Málaga,Malaga,578460,Europe/Madrid,ES,36.72016,-4.42034
Khabarovsk Vtoroy,Khabarovsk Vtoroy,578303,Asia/Vladivostok,RU,48.43776,135.13329
Kerman,Kerman,577514,Asia/Tehran,IR,30.28321,57.07879
Orūmīyeh,Orumiyeh,577307,Asia/Tehran,IR,37.55274,45.07605
Bahçelievler,Bahcelievler,576799,Europe/Istanbul,TR,41.00231,28.8598
Tanta,Tanta,576648,Africa/Cairo,EG,30.78847,31.00192
Baltimore,Baltimore,576498,America/New_York,US,39.29038,-76.61219
Bīkaner,Bikaner,576015,Asia/Kolkata,IN,28.01762,73.31495
Tlaquepaque,Tlaquepaque,575942,America/Mexico_City,MX,20.64091,-103.29327
Tlalpan,Tlalpan,574577,America/Mexico_City,MX,19.29513,-99.16206
Herāt,Herat,574300,Asia/Kabul,AF,34.34817,62.19967
Tomsk,Tomsk,574002,Asia/Tomsk,RU,56.49771,84.97437
Juiz de Fora,Juiz de Fora,573285,America/Sao_Paulo,BR,-21.76417,-43.35028
Umraniye,Umraniye,573265,Europe/Istanbul,TR,41.01643,29.12476
Shihezi,Shihezi,572772,Asia/Urumqi,CN,44.3023,86.03694
South Boston,South Boston,571281,America/New_York,US,42.33343,-71.04949
Nakuru,Nakuru,570674,Africa/Nairobi,KE,-0.30719,36.07225
Poznań,Poznan,570352,Europe/Warsaw,PL,52.40692,16.92993
Irbid,Irbid,569068,Asia/Amman,JO,32.55556,35.85
Kota Bharu,Kota Bharu,568900,Asia/Kuala_Lumpur,MY,6.12361,102.24333
Cimahi,Cimahi,568400,Asia/Jakarta,ID,-6.87222,107.5425
Meknes,Meknes,568295,Africa/Casablanca,MA,33.89352,-5.54727
Puente Alto,Puente Alto,568106,America/Santiago,CL,-33.61169,-70.57577
Mukalla,Mukalla,566000,Asia/Aden,YE,14.54248,49.12424
Nyala,Nyala,565734,Africa/Khartoum,SD,12.04888,24.88069
Orenburg,Orenburg,564773,Asia/Yekaterinburg,RU,51.7727,55.0988
Bokāro,Bokaro,564319,Asia/Kolkata,IN,23.66934,86.15161
Asmara,Asmara,563930,Africa/Asmara,ER,15.33805,38.93184
Uberlândia,Uberlandia,563536,America/Sao_Paulo,BR,-18.91861,-48.27722
Hachiōji,Hachioji,561344,Asia/Tokyo,JP,35.65583,139.32389
Wenchang,Wenchang,560894,Asia/Shanghai,CN,19.55158,110.80279
Gombe,Gombe,560000,Africa/Lagos,NG,10.28969,11.16729
Ile-Ife,Ile-Ife,560000,Africa/Lagos,NG,7.4824,4.56032
Albuquerque,Albuquerque,559121,America/Denver,US,35.08449,-106.65114
Hamhŭng,Hamhung,559056,Asia/Pyongyang,KP,39.91833,127.53639
Kemerovo,Kemerovo,558973,Asia/Novokuznetsk,RU,55.33333,86.08333
Nasiriyah,Nasiriyah,558400,Asia/Baghdad,IQ,31.05799,46.25726
Warangal,Warangal,557802,Asia/Kolkata,IN,18.0,79.58333
Sheffield,Sheffield,556500,Europe/London,GB,53.38297,-1.4659
Dresden,Dresden,556227,Europe/Berlin,DE,51.05089,13.73832
Bloemfontein,Bloemfontein,556000,Africa/Johannesburg,ZA,-29.12107,26.214
Santiago de Cuba,Santiago de Cuba,555865,America/Havana,CU,20.02083,-75.82667
Siping,Siping,555609,Asia/Shanghai,CN,43.16143,124.37785
Benguela,Benguela,555124,Africa/Luanda,AO,-12.57626,13.40547
Huaihua,Huaihua,552622,Asia/Shanghai,CN,27.56337,110.00404
Bahawalpur,Bahawalpur,552607,Asia/Karachi,PK,29.39779,71.6752
Chiclayo,Chiclayo,552508,America/Lima,PE,-6.77137,-79.84088
Zahedan,Zahedan,551980,Asia/Tehran,IR,29.4963,60.8629
Kimhae,Kimhae,550758,Asia/Seoul,KR,35.23417,128.88111
Nanded,Nanded,550564,Asia/Kolkata,IN,19.16023,77.31497
Kozhikode,Kozhikode,550440,Asia/Kolkata,IN,11.24802,75.7804
Cabinda,Cabinda,550000,Africa/Luanda,AO,-5.56717,12.19787
Pristina,Pristina,550000,Europe/Belgrade,XK,42.67272,21.16688
Jiamusi,Jiamusi,549549,Asia/Shanghai,CN,46.79711,130.31118
Antipolo,Antipolo,549543,Asia/Manila,PH,14.62578,121.12251
Korla,Korla,549324,Asia/Urumqi,CN,41.76055,86.15231
Porto Velho,Porto Velho,548952,America/Porto_Velho,BR,-8.76194,-63.90389
San Miguel de Tucumán,San Miguel de Tucuman,548866,America/Argentina/Tucuman,AR,-26.82414,-65.2226
Kuantan,Kuantan,548014,Asia/Kuala_Lumpur,MY,3.8077,103.326
Sevastopol,Sevastopol,547820,Europe/Simferopol,UA,44.60795,33.52134
Bremen,Bremen,546501,Europe/Berlin,DE,53.07582,8.80717
Wanning,Wanning,545992,Asia/Shanghai,CN,18.79931,110.3841
Owerri,Owerri,545000,Africa/Lagos,NG,5.48363,7.03325
Xinzhou,Xinzhou,544683,Asia/Shanghai,CN,38.40917,112.73333
Banqiao,Banqiao,543342,Asia/Taipei,TW,25.01427,121.46719
Sargodha,Sargodha,542603,Asia/Karachi,PK,32.08586,72.67418
Vilnius,Vilnius,542366,Europe/Vilnius,LT,54.68916,25.2798
Pingdu,Pingdu,542234,Asia/Shanghai,CN,36.78444,119.94639
Mbeya,Mbeya,541603,Africa/Dar_es_Salaam,TZ,-8.9,33.45
Calabar,Calabar,540000,Africa/Lagos,NG,4.95893,8.32695
Oujda,Oujda,539711,Africa/Casablanca,MA,34.68139,-1.90858
Calamba,Calamba,539671,Asia/Manila,PH,14.21167,121.16528
Novokuznetsk,Novokuznetsk,539616,Asia/Novokuznetsk,RU,53.7557,87.1099
Ryazan’,Ryazan',538962,Europe/Moscow,RU,54.6269,39.6916
Ji’an,Ji'an,538699,Asia/Shanghai,CN,27.11716,114.97927
Mersin,Mersin,537842,Europe/Istanbul,TR,36.81196,34.63886
Rourkela,Rourkela,536450,Asia/Kolkata,IN,22.22496,84.86414
Guli,Guli,536000,Asia/Shanghai,CN,28.88162,120.03308
Aksu,Aksu,535657,Asia/Urumqi,CN,41.18418,80.27921
Ebute Ikorodu,Ebute Ikorodu,535619,Africa/Lagos,NG,6.60086,3.48818
Tanggu,Tanggu,535298,Asia/Shanghai,CN,39.02111,117.64694
Astrakhan,Astrakhan,533925,Europe/Astrakhan,RU,46.34968,48.04076
Ar Raqqah,Ar Raqqah,531952,Asia/Damascus,SY,35.95283,39.00788
Québec,Quebec,531902,America/Toronto,CA,46.81228,-71.21454
Cuauhtémoc,Cuauhtemoc,531831,America/Mexico_City,MX,19.44506,-99.14612
Shangluo,Shangluo,531696,Asia/Shanghai,CN,33.86667,109.93056
Tucson,Tucson,531641,America/Phoenix,US,32.22174,-110.92648
Guntur,Guntur,530577,Asia/Kolkata,IN,16.29974,80.45729
Ibagué,Ibague,529635,America/Bogota,CO,4.43889,-75.23222
Antwerpen,Antwerpen,529247,Europe/Brussels,BE,51.22047,4.40026
Assiut,Assiut,528669,Africa/Cairo,EG,27.18096,31.18368
Hamadān,Hamadan,528256,Asia/Tehran,IR,34.79922,48.51456
Qionghai,Qionghai,528238,Asia/Shanghai,CN,19.2425,110.46417
Cangzhou,Cangzhou,527681,Asia/Shanghai,CN,38.31124,116.85334
Homyel',Homyel',526872,Europe/Minsk,BY,52.4345,30.9754
San Salvador,San Salvador,525990,America/El_Salvador,SV,13.68935,-89.18718
Himeji,Himeji,525682,Asia/Tokyo,JP,34.81667,134.7
Beihai,Beihai,525329,Asia/Shanghai,CN,21.48349,109.11549
Van,Van,525016,Europe/Istanbul,TR,38.49457,43.38323
Üsküdar,UEskuedar,524452,Europe/Istanbul,TR,41.02274,29.01366
Penza,Penza,523553,Europe/Moscow,RU,53.20066,45.00464
Kandahār,Kandahar,523300,Asia/Kabul,AF,31.61332,65.71013
Mazār-e Sharīf,Mazar-e Sharif,523300,Asia/Kabul,AF,36.70904,67.11087
Lyon,Lyon,522969,Europe/Paris,FR,45.74846,4.84671
Surakarta,Surakarta,522364,Asia/Jakarta,ID,-7.55611,110.83167
Hengshui,Hengshui,522147,Asia/Shanghai,CN,37.73908,115.68348
Dehra Dūn,Dehra Dun,522081,Asia/Kolkata,IN,30.32443,78.03392
Erode,Erode,521891,Asia/Kolkata,IN,11.3428,77.72741
Salta,Salta,520683,America/Argentina/Salta,AR,-24.7859,-65.41166
Bhayandar,Bhayandar,520301,Asia/Kolkata,IN,19.30157,72.85107
Esenler,Esenler,520235,Europe/Istanbul,TR,41.0435,28.87619
Fresno,Fresno,520052,America/Los_Angeles,US,36.74773,-119.77237
Hamilton,Hamilton,519949,America/Toronto,CA,43.25011,-79.84963
Al Fayyum,Al Fayyum,519047,Africa/Cairo,EG,29.30995,30.8418
Durgapur,Durgapur,518872,Asia/Kolkata,IN,23.51583,87.30801
Victoria de Durango,Victoria de Durango,518709,America/Monterrey,MX,24.02032,-104.65756
Ajmer,Ajmer,517911,Asia/Kolkata,IN,26.4521,74.63867
Lisbon,Lisbon,517802,Europe/Lisbon,PT,38.71667,-9.13333
Ulhasnagar,Ulhasnagar,516584,Asia/Kolkata,IN,19.21667,73.15
Guangyuan,Guangyuan,516424,Asia/Shanghai,CN,32.44201,105.823
Leeds,Leeds,516298,Europe/London,GB,53.79648,-1.54785
Kolhāpur,Kolhapur,516142,Asia/Kolkata,IN,16.69563,74.23167
Siliguri,Siliguri,515574,Asia/Kolkata,IN,26.71004,88.42851
Nürnberg,Nuernberg,515543,Europe/Berlin,DE,49.45421,11.07752
Hannover,Hannover,515140,Europe/Berlin,DE,52.37052,9.73322
Āzādshahr,Azadshahr,514102,Asia/Tehran,IR,34.79049,48.57011
Samarkand,Samarkand,513572,Asia/Samarkand,UZ,39.65417,66.95972
Macapá,Macapa,512902,America/Belem,BR,0.03889,-51.06639
Xianning,Xianning,512517,Asia/Shanghai,CN,29.84347,114.32201
Tembisa,Tembisa,511655,Africa/Johannesburg,ZA,-25.99636,28.2268
Campos dos Goytacazes,Campos dos Goytacazes,511168,America/Sao_Paulo,BR,-21.75227,-41.33044
Bilimora,Bilimora,510879,Asia/Kolkata,IN,20.76957,72.96134
Aparecida de Goiânia,Aparecida de Goiania,510770,America/Sao_Paulo,BR,-16.82333,-49.24389
Makati City,Makati City,510383,Asia/Manila,PH,14.55027,121.03269
Tonghua,Tonghua,510000,Asia/Shanghai,CN,41.71972,125.92639
"Mianzhu, Deyang, Sichuan","Mianzhu, Deyang, Sichuan",510000,Asia/Shanghai,CN,31.33786,104.22057
Naberezhnyye Chelny,Naberezhnyye Chelny,509870,Europe/Moscow,RU,55.72545,52.41122
Matsuyama,Matsuyama,509835,Asia/Tokyo,JP,33.83916,132.76574
Lipetsk,Lipetsk,509735,Europe/Moscow,RU,52.60311,39.57076
Kikwit,Kikwit,509367,Africa/Kinshasa,CD,-5.04098,18.81619
Florianópolis,Florianopolis,508826,America/Sao_Paulo,BR,-27.59667,-48.54917
Banan,Banan,508703,Asia/Shanghai,CN,29.37861,106.54
Tuen Mun,Tuen Mun,507900,Asia/Hong_Kong,HK,22.39175,113.97157
Zhangye,Zhangye,507433,Asia/Shanghai,CN,38.93417,100.45167
Kirov,Kirov,507155,Europe/Kirov,RU,58.59665,49.66007
Kashgar,Kashgar,506640,Asia/Urumqi,CN,39.47066,75.98951
Edinburgh,Edinburgh,506520,Europe/London,GB,55.95206,-3.19648
Najrān,Najran,505652,Asia/Riyadh,SA,17.49326,44.12766
Karol Bāgh,Karol Bagh,505241,Asia/Kolkata,IN,28.65136,77.19072
Zhoukou,Zhoukou,505171,Asia/Shanghai,CN,33.63333,114.63333
Leipzig,Leipzig,504971,Europe/Berlin,DE,51.33962,12.37129
Pingliang,Pingliang,504848,Asia/Shanghai,CN,35.53917,106.68611
Kalininskiy,Kalininskiy,504641,Europe/Moscow,RU,59.99675,30.3899
Duisburg,Duisburg,504358,Europe/Berlin,DE,51.43247,6.76516
Āsansol,Asansol,504271,Asia/Kolkata,IN,23.68333,86.98333
Arāk,Arak,503647,Asia/Tehran,IR,34.09493,49.69809
Aktobe,Aktobe,500757,Asia/Aqtobe,KZ,50.27969,57.20718
Kota Kinabalu,Kota Kinabalu,500421,Asia/Kuching,MY,5.9749,116.0724
Pohang,Pohang,500000,Asia/Seoul,KR,36.02917,129.36481
Zhucheng,Zhucheng,499285,Asia/Shanghai,CN,35.99472,119.3975
Santa Marta,Santa Marta,499192,America/Bogota,CO,11.24079,-74.19904
Matsudo,Matsudo,498575,Asia/Tokyo,JP,35.77995,139.90144
Karagandy,Karagandy,497777,Asia/Almaty,KZ,49.80187,73.10211
Loudi,Loudi,497171,Asia/Shanghai,CN,27.73444,111.99444
Sha Tin,Sha Tin,495200,Asia/Hong_Kong,HK,22.38333,114.18333
Toulouse,Toulouse,493465,Europe/Paris,FR,43.60426,1.44367
Cheboksary,Cheboksary,492331,Europe/Moscow,RU,56.13222,47.25194
Jamnagar,Jamnagar,492056,Asia/Kolkata,IN,22.47292,70.06673
Shanwei,Shanwei,491766,Asia/Shanghai,CN,22.78199,115.3475
Montería,Monteria,490935,America/Bogota,CO,8.74798,-75.88143
Sacramento,Sacramento,490712,America/Los_Angeles,US,38.58157,-121.4944
Ruiru,Ruiru,490120,Africa/Nairobi,KE,-1.14665,36.96087
Valledupar,Valledupar,490075,America/Bogota,CO,10.46314,-73.25322
Ajman City,Ajman City,490035,Asia/Dubai,AE,25.40177,55.47878
Jianshui,Jianshui,490000,Asia/Shanghai,CN,24.2774,101.224
Port Sudan,Port Sudan,489725,Africa/Khartoum,SD,19.61745,37.21644
Toluca,Toluca,489333,America/Mexico_City,MX,19.28786,-99.65324
Ciudad López Mateos,Ciudad Lopez Mateos,489160,America/Mexico_City,MX,19.55793,-99.25675
Higashi-ōsaka,Higashi-osaka,489077,Asia/Tokyo,JP,34.66667,135.58333
Al Khuşūş,Al Khusus,488904,Africa/Cairo,EG,30.15293,31.31501
Jeju City,Jeju City,486306,Asia/Seoul,KR,33.50972,126.52194
Omaha,Omaha,486051,America/Chicago,US,41.25626,-95.94043
Masina,Masina,485167,Africa/Kinshasa,CD,-4.38361,15.39139
Sahāranpur,Saharanpur,484873,Asia/Kolkata,IN,29.9679,77.54522
Vellore,Vellore,484690,Asia/Kolkata,IN,12.9184,79.13255
Cuautitlán Izcalli,Cuautitlan Izcalli,484573,America/Mexico_City,MX,19.64388,-99.21598
Piura,Piura,484475,America/Lima,PE,-5.19449,-80.63282
Kalaburagi,Kalaburagi,483615,Asia/Kolkata,IN,17.33583,76.83757
Kurashiki,Kurashiki,483576,Asia/Tokyo,JP,34.58333,133.76667
Bhātpāra,Bhatpara,483129,Asia/Kolkata,IN,22.86643,88.40113
Jijiga,Jijiga,483000,Africa/Addis_Ababa,ET,9.35,42.8
Tula,Tula,482873,Europe/Moscow,RU,54.19609,37.61822
Najaf,Najaf,482576,Asia/Baghdad,IQ,32.02594,44.34625
Xichang,Xichang,481796,Asia/Shanghai,CN,27.89642,102.26341
Okene,Okene,479178,Africa/Lagos,NG,7.55122,6.23589
Uijeongbu-si,Uijeongbu-si,479141,Asia/Seoul,KR,37.7415,127.0474
East London,East London,478676,Africa/Johannesburg,ZA,-33.01529,27.91162
Yazd,Yazd,477905,Asia/Tehran,IR,31.89722,54.3675
Hargeysa,Hargeysa,477876,Africa/Mogadishu,SO,9.56,44.065
Ōita,Oita,477715,Asia/Tokyo,JP,33.23333,131.6
Mauá,Maua,477552,America/Sao_Paulo,BR,-23.66778,-46.46139
Sialkot,Sialkot,477396,Asia/Karachi,PK,32.49268,74.53134
Jincheng,Jincheng,476945,Asia/Shanghai,CN,35.50222,112.83278
Eldoret,Eldoret,475716,Africa/Nairobi,KE,0.52036,35.26993
Kansas City,Kansas City,475378,America/Chicago,US,39.09973,-94.57857
Yan’an,Yan'an,475234,Asia/Shanghai,CN,36.59889,109.49167
Kaliningrad,Kaliningrad,475056,Europe/Kaliningrad,RU,54.70649,20.51095
Skopje,Skopje,474889,Europe/Skopje,MK,41.99646,21.43141
Vereeniging,Vereeniging,474681,Africa/Johannesburg,ZA,-26.67313,27.92615
Dĩ An,Di An,474681,Asia/Ho_Chi_Minh,VN,10.90682,106.7694
The Hague,The Hague,474292,Europe/Amsterdam,NL,52.07667,4.29861
Long Beach,Long Beach,474140,America/Los_Angeles,US,33.76696,-118.18923
Shouguang,Shouguang,473620,Asia/Shanghai,CN,36.88,118.7375
Jingdezhen,Jingdezhen,473561,Asia/Shanghai,CN,29.2947,117.20789
Shizuishan,Shizuishan,472472,Asia/Shanghai,CN,38.98082,106.3892
Mesa,Mesa,471825,America/Phoenix,US,33.42227,-111.82264
Morogoro,Morogoro,471409,Africa/Dar_es_Salaam,TZ,-6.82102,37.66122
Kenitra,Kenitra,470949,Africa/Casablanca,MA,34.26101,-6.5802
Seeb,Seeb,470878,Asia/Muscat,OM,23.67027,58.18911
Jiaojiang,Jiaojiang,470804,Asia/Shanghai,CN,28.69844,121.47331
Mykolayiv,Mykolayiv,470011,Europe/Kyiv,UA,46.97625,31.99296
Nishinomiya-hama,Nishinomiya-hama,468925,Asia/Tokyo,JP,34.71562,135.33199
Fukuyama,Fukuyama,468812,Asia/Tokyo,JP,34.48333,133.36667
Staten Island,Staten Island,468730,America/New_York,US,40.56233,-74.13986
Nanping,Nanping,467875,Asia/Shanghai,CN,26.645,118.17361
Pereira,Pereira,467269,America/Bogota,CO,4.81333,-75.69611
Ciudad Apodaca,Ciudad Apodaca,467157,America/Monterrey,MX,25.78195,-100.18839
Belford Roxo,Belford Roxo,466096,America/Sao_Paulo,BR,-22.76417,-43.39944
Kanazawa,Kanazawa,466029,Asia/Tokyo,JP,36.6,136.61667
Gonder,Gonder,466000,Africa/Addis_Ababa,ET,12.6,37.46667
Bristol,Bristol,465866,Europe/London,GB,51.45523,-2.59665
Mixco,Mixco,465773,America/Guatemala,GT,14.63077,-90.60711
Jammu,Jammu,465567,Asia/Kolkata,IN,32.73528,74.86167
Longshan,Longshan,465249,Asia/Shanghai,CN,42.88545,125.1367
Ikare,Ikare,465000,Africa/Lagos,NG,7.52591,5.75342
Tamale,Tamale,464316,Africa/Accra,GH,9.40079,-0.8393
Heyuan,Heyuan,463907,Asia/Shanghai,CN,23.73333,114.68333
Atlanta,Atlanta,463878,America/New_York,US,33.749,-84.38798
Gdańsk,Gdansk,461865,Europe/Warsaw,PL,54.35227,18.64912
Joinville,Joinville,461304,America/Sao_Paulo,BR,-26.30444,-48.84556
Huangshan,Huangshan,460786,Asia/Shanghai,CN,29.71139,118.3125
Ḩamāh,Hamah,460602,Asia/Damascus,SY,35.13179,36.75783
Murcia,Murcia,460349,Europe/Madrid,ES,37.98704,-1.13004
Kurnool,Kurnool,460184,Asia/Kolkata,IN,15.82887,78.03602
Yola,Yola,460000,Africa/Lagos,NG,9.20839,12.48146
Santo Domingo de los Colorados,Santo Domingo de los Colorados,458580,America/Guayaquil,EC,-0.25305,-79.17536
Ţarţūs,Tartus,458327,Asia/Damascus,SY,34.88902,35.88659
Karabağlar,Karabaglar,458000,Europe/Istanbul,TR,38.37396,27.1352
Mek'ele,Mek'ele,457900,Africa/Addis_Ababa,ET,13.49667,39.47528
Zamboanga,Zamboanga,457623,Asia/Manila,PH,6.91028,122.07389
Ujjain,Ujjain,457346,Asia/Kolkata,IN,23.18239,75.77643
Nazrēt,Nazret,456900,Africa/Addis_Ababa,ET,8.55,39.26667
Colorado Springs,Colorado Springs,456568,America/Denver,US,38.83388,-104.82136
Niterói,Niteroi,456456,America/Sao_Paulo,BR,-22.88333,-43.10361
Huancayo,Huancayo,456250,America/Lima,PE,-12.06513,-75.20486
Al Ḩillah,Al Hillah,455700,Asia/Baghdad,IQ,32.46367,44.41963
Mbandaka,Mbandaka,455011,Africa/Kinshasa,CD,0.04865,18.26034
Namp’o,Namp'o,455000,Asia/Pyongyang,KP,38.7375,125.40778
Malanje,Malanje,455000,Africa/Luanda,AO,-9.54015,16.34096
Bacolod City,Bacolod City,454898,Asia/Manila,PH,10.66667,122.95
São João de Meriti,Sao Joao de Meriti,454849,America/Sao_Paulo,BR,-22.80389,-43.37222
Mansilingan,Mansilingan,454150,Asia/Manila,PH,10.63111,122.97889
Virginia Beach,Virginia Beach,452745,America/New_York,US,36.85293,-75.97799
Rāmgundam,Ramgundam,452261,Asia/Kolkata,IN,18.80084,79.45206
Batman,Batman,452157,Europe/Istanbul,TR,37.88738,41.13221
Manado,Manado,451916,Asia/Makassar,ID,1.48218,124.84892
Lishui,Lishui,451418,Asia/Shanghai,CN,28.46042,119.91029
Ndola,Ndola,451246,Africa/Lusaka,ZM,-12.95867,28.63659
Raleigh,Raleigh,451066,America/New_York,US,35.7721,-78.63861
Muratpaşa,Muratpasa,450000,Europe/Istanbul,TR,36.89157,30.76498
Juba,Juba,450000,Africa/Juba,SS,4.85165,31.58247
Eslamshahr,Eslamshahr,450000,Asia/Tehran,IR,35.55222,51.23504
Wenshan City,Wenshan City,450000,Asia/Shanghai,CN,23.36306,104.25047
Utsunomiya,Utsunomiya,449865,Asia/Tokyo,JP,36.56667,139.88333
Heroica Matamoros,Heroica Matamoros,449815,America/Matamoros,MX,25.87972,-97.50417
Şanlıurfa,Sanliurfa,449549,Europe/Istanbul,TR,37.16708,38.79392
Chengde,Chengde,449325,Asia/Shanghai,CN,40.9519,117.95883
Kursk,Kursk,448733,Europe/Moscow,RU,51.73733,36.18735
Maheshtala,Maheshtala,448317,Asia/Kolkata,IN,22.50862,88.25322
Constantine,Constantine,448028,Africa/Algiers,DZ,36.365,6.61472
Andijon,Andijon,447800,Asia/Tashkent,UZ,40.78206,72.34424
Cardiff,Cardiff,447287,Europe/London,GB,51.48,-3.18
Boksburg,Boksburg,445168,Africa/Johannesburg,ZA,-26.21197,28.25958
Cagayan de Oro,Cagayan de Oro,445103,Asia/Manila,PH,8.48222,124.64722
Basuo,Basuo,444458,Asia/Shanghai,CN,19.10267,108.66565
Elazığ,Elazig,443363,Europe/Istanbul,TR,38.67431,39.22321
San Nicolás de los Garza,San Nicolas de los Garza,443273,America/Monterrey,MX,25.74167,-100.30222
Kupang,Kupang,442758,Asia/Makassar,ID,-10.17083,123.60694
Amagasaki,Amagasaki,442173,Asia/Tokyo,JP,34.71667,135.41667
Carrefour,Carrefour,442156,America/Port-au-Prince,HT,18.54114,-72.39922
Shyamnagar,Shyamnagar,441956,Asia/Kolkata,IN,22.83333,88.36667
Dasmariñas,Dasmarinas,441876,Asia/Manila,PH,14.32944,120.93667
Zhangjiajie,Zhangjiajie,441804,Asia/Shanghai,CN,29.12944,110.47833
Miami,Miami,441003,America/New_York,US,25.77427,-80.19366
Korhogo,Korhogo,440926,Africa/Abidjan,CI,9.45803,-5.62961
Halifax,Halifax,439819,America/Halifax,CA,44.64269,-63.57688
Fujisawa,Fujisawa,439728,Asia/Tokyo,JP,35.34926,139.47666
Bissau,Bissau,439704,Africa/Bissau,GW,11.86357,-15.59767
Sandakan,Sandakan,439050,Asia/Kuching,MY,5.8402,118.1179
Mawlamyine,Mawlamyine,438861,Asia/Yangon,MM,16.49051,97.62825
Sunch’ŏn,Sunch'on,437000,Asia/Pyongyang,KP,39.43167,125.93278
Sultangazi,Sultangazi,436935,Europe/Istanbul,TR,41.10652,28.86847
Uyo,Uyo,436606,Africa/Lagos,NG,5.05127,7.9335
Ciudad Obregón,Ciudad Obregon,436484,America/Hermosillo,MX,27.48642,-109.94083
Bei’an,Bei'an,436444,Asia/Shanghai,CN,48.26667,126.6
Mālegaon,Malegaon,435362,Asia/Kolkata,IN,20.54966,74.53462
Davangere,Davangere,435128,Asia/Kolkata,IN,14.46693,75.92694
Ado-Ekiti,Ado-Ekiti,435000,Africa/Lagos,NG,7.62329,5.22087
Manizales,Manizales,434403,America/Bogota,CO,5.06889,-75.51738
Masan,Masan,434371,Asia/Seoul,KR,35.12725,126.83149
Ananindeua,Ananindeua,433956,America/Belem,BR,-1.36556,-48.37222
Stavropol’,Stavropol',433931,Europe/Moscow,RU,45.0428,41.9734
Santos,Santos,433656,America/Sao_Paulo,BR,-23.96083,-46.33361
Kashiwa,Kashiwa,433436,Asia/Tokyo,JP,35.86224,139.97732
Ogbomoso,Ogbomoso,433030,Africa/Lagos,NG,8.13373,4.24014
Tel Aviv,Tel Aviv,432892,Asia/Jerusalem,IL,32.08088,34.78057
Goma,Goma,432587,Africa/Lubumbashi,CD,-1.67409,29.22845
Buenaventura,Buenaventura,432385,America/Bogota,CO,3.58333,-77.0
Welkom,Welkom,431944,Africa/Johannesburg,ZA,-27.97742,26.73506
Mariupol,Mariupol,431859,Europe/Kyiv,UA,47.09514,37.54131
Sham Shui Po,Sham Shui Po,431090,Asia/Hong_Kong,HK,22.33023,114.15945
Venustiano Carranza,Venustiano Carranza,430978,America/Mexico_City,MX,19.44361,-99.10499
Zagazig,Zagazig,430445,Africa/Cairo,EG,30.58768,31.502
Mataram,Mataram,429651,Asia/Makassar,ID,-8.58333,116.11667
Ismailia,Ismailia,429465,Africa/Cairo,EG,30.60427,32.27225
Jalgaon,Jalgaon,429298,Asia/Kolkata,IN,21.00292,75.56602
Ningde,Ningde,429260,Asia/Shanghai,CN,26.66167,119.52278
Akola,Akola,428857,Asia/Kolkata,IN,20.70957,76.9981
Belagavi,Belagavi,428720,Asia/Kolkata,IN,15.85212,74.50447
Cusco,Cusco,428450,America/Lima,PE,-13.52264,-71.96734
Jiuquan,Jiuquan,428346,Asia/Shanghai,CN,39.74318,98.51736
Veracruz,Veracruz,428323,America/Mexico_City,MX,19.18095,-96.1429
East Jerusalem,East Jerusalem,428304,Asia/Hebron,PS,31.78336,35.23388
Gumi,Gumi,427770,Asia/Seoul,KR,36.1136,128.336
Bryansk,Bryansk,427236,Europe/Moscow,RU,53.25209,34.37167
Maltepe,Maltepe,427040,Europe/Istanbul,TR,40.93567,29.15507
Kuala Terengganu,Kuala Terengganu,426500,Asia/Kuala_Lumpur,MY,5.3302,103.1408
Toyota,Toyota,426162,Asia/Tokyo,JP,35.08333,137.15
Mandaluyong City,Mandaluyong City,425758,Asia/Manila,PH,14.5832,121.0409
Matadi,Matadi,425662,Africa/Kinshasa,CD,-5.83861,13.46306
Al Kharj,Al Kharj,425300,Asia/Riyadh,SA,24.15541,47.33457
Wong Tai Sin,Wong Tai Sin,425235,Asia/Hong_Kong,HK,22.35,114.18333
Minna,Minna,425000,Africa/Lagos,NG,9.61524,6.54776
Xalapa de Enríquez,Xalapa de Enriquez,424755,America/Mexico_City,MX,19.53124,-96.91589
Rajpur Sonarpur,Rajpur Sonarpur,424368,Asia/Kolkata,IN,22.4382,88.43205
Bratislava,Bratislava,423737,Europe/Bratislava,SK,48.14816,17.10674
Gaya,Gaya,423692,Asia/Kolkata,IN,24.79686,85.00385
Laval,Laval,422993,America/Toronto,CA,45.56995,-73.692
Udaipur,Udaipur,422784,Asia/Kolkata,IN,24.58584,73.71346
Al Ḩasakah,Al Hasakah,422445,Asia/Damascus,SY,36.50237,40.74772
Luxor,Luxor,422407,Africa/Cairo,EG,25.69893,32.6421
Awasa,Awasa,422200,Africa/Addis_Ababa,ET,7.06205,38.47635
Chimoio,Chimoio,422046,Africa/Maputo,MZ,-19.11639,33.48333
Daloa,Daloa,421871,Africa/Abidjan,CI,6.87735,-6.45022
Dingxi,Dingxi,420614,Asia/Shanghai,CN,35.57088,104.62303
Bamenda,Bamenda,420445,Africa/Douala,CM,5.9597,10.14597
Tver,Tver,420065,Europe/Moscow,RU,56.85836,35.90057
Boa Vista,Boa Vista,419652,America/Boa_Vista,BR,2.81972,-60.67333
Rio Branco,Rio Branco,419452,America/Rio_Branco,BR,-9.97472,-67.81
Oakland,Oakland,419267,America/Los_Angeles,US,37.80437,-122.2708
Korba,Korba,419146,Asia/Kolkata,IN,22.3458,82.69633
Takamatsu,Takamatsu,418994,Asia/Tokyo,JP,34.33333,134.05
Tirana,Tirana,418495,Europe/Tirane,AL,41.3275,19.81889
San Juan,San Juan,418140,America/Puerto_Rico,PR,18.46633,-66.10572
Auckland,Auckland,417910,Pacific/Auckland,NZ,-36.84853,174.76349
Alor Setar,Alor Setar,417800,Asia/Kuala_Lumpur,MY,6.12104,100.36014
Sukkur,Sukkur,417767,Asia/Karachi,PK,27.70323,68.85889
Tongchuan,Tongchuan,417740,Asia/Shanghai,CN,34.8988,108.95056
Mangalore,Mangalore,417387,Asia/Kolkata,IN,12.91723,74.85603
Pasay,Pasay,416522,Asia/Manila,PH,14.53748,121.00144
Toyama,Toyama,415844,Asia/Tokyo,JP,36.7,137.21667
Tétouan,Tetouan,415810,Africa/Casablanca,MA,35.57845,-5.36837
Azcapotzalco,Azcapotzalco,414711,America/Mexico_City,MX,19.48698,-99.18594
Magnitogorsk,Magnitogorsk,413351,Asia/Yekaterinburg,RU,53.41861,59.04722
Tulsa,Tulsa,413066,America/Chicago,US,36.15398,-95.99277
Jhānsi,Jhansi,412927,Asia/Kolkata,IN,25.45887,78.57994
Tseung Kwan O,Tseung Kwan O,412900,Asia/Hong_Kong,HK,22.32789,114.24992
Ciudad Bolívar,Ciudad Bolivar,412619,America/Caracas,VE,8.12923,-63.54086
Guyuan,Guyuan,411854,Asia/Shanghai,CN,36.00667,106.28083
Wandsbek,Wandsbek,411422,Europe/Berlin,DE,53.58334,10.08305
Minneapolis,Minneapolis,410939,America/Chicago,US,44.97997,-93.26384
Thoothukudi,Thoothukudi,410760,Asia/Kolkata,IN,8.76735,78.13425
Ardabīl,Ardabil,410753,Asia/Tehran,IR,38.2498,48.2933
Chaoyang,Chaoyang,410005,Asia/Shanghai,CN,41.57028,120.45861
Gaza,Gaza,410000,Asia/Gaza,PS,31.50161,34.46672
Palma,Palma,409661,Europe/Madrid,ES,39.56939,2.65024
Yokosuka,Yokosuka,409478,Asia/Tokyo,JP,35.28361,139.66722
Hotan,Hotan,408894,Asia/Urumqi,CN,37.1075,79.93548
Tonalá,Tonala,408759,America/Mexico_City,MX,20.62445,-103.23423
Panamá,Panama,408168,America/Panama,PA,8.9936,-79.51973
Xochimilco,Xochimilco,407885,America/Mexico_City,MX,19.25465,-99.10356
Szczecin,Szczecin,407811,Europe/Warsaw,PL,53.42894,14.55302
Nagasaki,Nagasaki,407624,Asia/Tokyo,JP,32.75,129.88333
Piracicaba,Piracicaba,407252,America/Sao_Paulo,BR,-22.72528,-47.64917
Uvira,Uvira,407092,Africa/Lubumbashi,CD,-3.39534,29.13779
Ribeirão das Neves,Ribeirao das Neves,406802,America/Sao_Paulo,BR,-19.76694,-44.08667
Hirakata,Hirakata,406331,Asia/Tokyo,JP,34.81352,135.64914
Ivanovo,Ivanovo,406113,Europe/Moscow,RU,56.99719,40.97139
Cumaná,Cumana,405626,America/Caracas,VE,10.45397,-64.18256
Newcastle,Newcastle,404838,Africa/Johannesburg,ZA,-27.75796,29.9318
Nellore,Nellore,404158,Asia/Kolkata,IN,14.44992,79.98697
Hsinchu,Hsinchu,404109,Asia/Taipei,TW,24.80361,120.96861
Jayapura,Jayapura,404004,Asia/Jayapura,ID,-2.53371,140.71813
Jixi,Jixi,403759,Asia/Shanghai,CN,45.29322,130.96217
Zanzibar,Zanzibar,403658,Africa/Dar_es_Salaam,TZ,-6.16394,39.19793
Kuching,Kuching,402738,Asia/Kuching,MY,1.55,110.33333
Tongling,Tongling,402062,Asia/Shanghai,CN,30.95,117.78333
Taoyuan City,Taoyuan City,402014,Asia/Taipei,TW,24.99368,121.29696
Kassala,Kassala,401477,Africa/Khartoum,SD,15.45099,36.39998
Lekki,Lekki,401272,Africa/Lagos,NG,6.41222,4.0947
Kitwe,Kitwe,400914,Africa/Lusaka,ZM,-12.80243,28.21323
Gifu-shi,Gifu-shi,400118,Asia/Tokyo,JP,35.42291,136.76039
West Jerusalem,West Jerusalem,400000,Asia/Jerusalem,IL,31.78199,35.21961
Bida,Bida,400000,Africa/Lagos,NG,9.08044,6.0099
Machida,Machida,399969,Asia/Tokyo,JP,35.54028,139.45083
Bunia,Bunia,399282,Africa/Lubumbashi,CD,1.55941,30.25224
Miyazaki,Miyazaki,398215,Asia/Tokyo,JP,31.91667,131.41667
Kisumu,Kisumu,397957,Africa/Nairobi,KE,-0.10221,34.76171
Luhansk,Luhansk,397677,Europe/Kyiv,UA,48.56952,39.32857
Keelung,Keelung,397515,Asia/Taipei,TW,25.13089,121.74094
Barinas,Barinas,397279,America/Caracas,VE,8.62261,-70.20749
Al Hoceïma,Al Hoceima,395644,Africa/Casablanca,MA,35.25165,-3.93723
Manchester,Manchester,395515,Europe/London,GB,53.48095,-2.23743
Surrey,Surrey,394976,America/Vancouver,CA,49.10635,-122.82509
Vila Velha,Vila Velha,394930,America/Sao_Paulo,BR,-20.32972,-40.2925
Bologna,Bologna,394843,Europe/Rome,IT,44.49381,11.33875
Serra,Serra,394153,America/Sao_Paulo,BR,-20.12861,-40.30778
Samsun,Samsun,394050,Europe/Istanbul,TR,41.27976,36.3361
Tallinn,Tallinn,394024,Europe/Tallinn,EE,59.43696,24.75353
Tanga,Tanga,393429,Africa/Dar_es_Salaam,TZ,-5.06893,39.09875
El Obeid,El Obeid,393311,Africa/Khartoum,SD,13.18421,30.21669
Saurimo,Saurimo,393000,Africa/Luanda,AO,-9.66078,20.39155
Bello,Bello,392939,America/Bogota,CO,6.33732,-75.55795
Pasto,Pasto,392930,America/Bogota,CO,1.21361,-77.28111
Gaomi,Gaomi,391986,Asia/Shanghai,CN,36.38333,119.75278
Santa Fe,Santa Fe,391164,America/Argentina/Cordoba,AR,-31.64881,-60.70868
San-Pédro,San-Pedro,390654,Africa/Abidjan,CI,4.74851,-6.6363
Diadema,Diadema,390633,America/Sao_Paulo,BR,-23.68611,-46.62278
Makurdi,Makurdi,390000,Africa/Lagos,NG,7.73375,8.52139
Wichita,Wichita,389965,America/Chicago,US,37.69224,-97.33754
New Orleans,New Orleans,389617,America/Chicago,US,29.95465,-90.07507
Takoradi,Takoradi,389114,Africa/Accra,GH,4.89816,-1.76029
Samut Prakan,Samut Prakan,388920,Asia/Bangkok,TH,13.5976,100.5972
Arlington,Arlington,388125,America/Chicago,US,32.73569,-97.10807
Cleveland,Cleveland,388072,America/New_York,US,41.4995,-81.69541
Iloilo,Iloilo,387681,Asia/Manila,PH,10.69694,122.56444
Khamis Mushait,Khamis Mushait,387553,Asia/Riyadh,SA,18.3,42.73333
Ambato,Ambato,387309,America/Guayaquil,EC,-1.24908,-78.61675
Abomey-Calavi,Abomey-Calavi,385755,Africa/Porto-Novo,BJ,6.44852,2.35566
Bochum,Bochum,385729,Europe/Berlin,DE,51.48165,7.21648
Benito Juárez,Benito Juarez,385439,America/Mexico_City,MX,19.3727,-99.1564
Sector 3,Sector 3,385439,Europe/Bucharest,RO,44.4234,26.16874
Tampa,Tampa,384959,America/New_York,US,27.94752,-82.45843
Kahramanmaraş,Kahramanmaras,384953,Europe/Istanbul,TR,37.5847,36.92641
Chongzuo,Chongzuo,384905,Asia/Shanghai,CN,22.38161,107.3683
Toyonaka,Toyonaka,384459,Asia/Tokyo,JP,34.78244,135.46932
Iztacalco,Iztacalco,384326,America/Mexico_City,MX,19.39528,-99.09778
Betim,Betim,384000,America/Sao_Paulo,BR,-19.96778,-44.19833
Bawshar,Bawshar,383257,Asia/Muscat,OM,23.57769,58.39982
Delmas 73,Delmas 73,382920,America/Port-au-Prince,HT,18.54472,-72.30278
Wellington,Wellington,381900,Pacific/Auckland,NZ,-41.28664,174.77557
Mazatlán,Mazatlan,381583,America/Mazatlan,MX,23.2329,-106.4062
Caxias do Sul,Caxias do Sul,381270,America/Sao_Paulo,BR,-29.16806,-51.17944
Nizhny Tagil,Nizhny Tagil,381116,Asia/Yekaterinburg,RU,57.91944,59.965
Irapuato,Irapuato,380941,America/Mexico_City,MX,20.67675,-101.35628
Bochum-Hordel,Bochum-Hordel,380000,Europe/Berlin,DE,51.50168,7.1756
Aswān,Aswan,379774,Africa/Cairo,EG,24.09082,32.89942
Ichinomiya,Ichinomiya,379654,Asia/Tokyo,JP,35.3,136.8
Brno,Brno,379466,Europe/Prague,CZ,49.19522,16.60796
Bauru,Bauru,379297,America/Sao_Paulo,BR,-22.31472,-49.06056
Iaşi,Iasi,378954,Europe/Bucharest,RO,47.16667,27.6
Krugersdorp,Krugersdorp,378821,Africa/Johannesburg,ZA,-26.08577,27.77515
Pānihāti,Panihati,378705,Asia/Kolkata,IN,22.69089,88.37404
Shibganj,Shibganj,378701,Asia/Dhaka,BD,25.00146,89.32266
Las Palmas de Gran Canaria,Las Palmas de Gran Canaria,378517,Atlantic/Canary,ES,28.09973,-15.41343
Iquitos,Iquitos,377609,America/Lima,PE,-3.74912,-73.25383
Qingyang,Qingyang,377528,Asia/Shanghai,CN,35.70976,107.64455
Toyohashi,Toyohashi,377453,Asia/Tokyo,JP,34.76667,137.38333
Hechuan,Hechuan,377213,Asia/Shanghai,CN,29.99228,106.26461
Rājahmundry,Rajahmundry,376333,Asia/Kolkata,IN,17.00517,81.77784
Minato,Minato,375339,Asia/Tokyo,JP,34.2152,135.1501
Ondo,Ondo,375000,Africa/Lagos,NG,7.09316,4.83528
São José do Rio Preto,Sao Jose do Rio Preto,374699,America/Sao_Paulo,BR,-20.81972,-49.37944
Nuevo Laredo,Nuevo Laredo,373725,America/Matamoros,MX,27.47629,-99.51639
Bakersfield,Bakersfield,373640,America/Los_Angeles,US,35.37329,-119.01871
Bengkulu,Bengkulu,373591,Asia/Jakarta,ID,-3.80044,102.26554
Yogyakarta,Yogyakarta,373589,Asia/Jakarta,ID,-7.80139,110.36472
Hrodna,Hrodna,373547,Europe/Minsk,BY,53.6884,23.8258
Xuanhua,Xuanhua,373422,Asia/Shanghai,CN,40.61205,115.06463
Bafoussam,Bafoussam,373268,Africa/Douala,CM,5.47775,10.41759
Palu,Palu,373218,Asia/Makassar,ID,-0.90833,119.87083
Seremban,Seremban,372917,Asia/Kuala_Lumpur,MY,2.7297,101.9381
Miguel Hidalgo,Miguel Hidalgo,372889,America/Mexico_City,MX,19.43411,-99.20024
Tawau,Tawau,372615,Asia/Kuching,MY,4.24482,117.89115
Takasaki,Takasaki,372369,Asia/Tokyo,JP,36.33333,139.01667
Honolulu,Honolulu,371657,Pacific/Honolulu,US,21.30694,-157.85833
Chitungwiza,Chitungwiza,371244,Africa/Harare,ZW,-18.01274,31.07555
Abadan,Abadan,370180,Asia/Tehran,IR,30.3392,48.3043
Fenghuang,Fenghuang,370000,Asia/Shanghai,CN,27.93557,109.59961
Puerto La Cruz,Puerto La Cruz,370000,America/Caracas,VE,10.21382,-64.6328
Umuahia,Umuahia,370000,Africa/Lagos,NG,5.52491,7.49461
Vinnytsya,Vinnytsya,369839,Europe/Kyiv,UA,49.2322,28.46871
Uşak,Usak,369433,Europe/Istanbul,TR,38.67351,29.4058
Bharatpur,Bharatpur,369377,Asia/Kathmandu,NP,27.6768,84.43589
Mahilyow,Mahilyow,369200,Europe/Minsk,BY,53.9168,30.3449
Natore,Natore,369138,Asia/Dhaka,BD,24.41112,88.98673
6th of October City,6th of October City,368650,Africa/Cairo,EG,29.81667,31.05
Leicester,Leicester,368600,Europe/London,GB,52.6386,-1.13169
Sector 6,Sector 6,367760,Europe/Bucharest,RO,44.43579,26.01649
Canberra,Canberra,367752,Australia/Sydney,AU,-35.28346,149.12807
Nara-shi,Nara-shi,367353,Asia/Tokyo,JP,34.68505,135.80485
Florence,Florence,367150,Europe/Rome,IT,43.77925,11.24626
Ahmadnagar,Ahmadnagar,367140,Asia/Kolkata,IN,19.09457,74.73843
Kollam,Kollam,367107,Asia/Kolkata,IN,8.88113,76.58469
Dhūlia,Dhulia,366980,Asia/Kolkata,IN,20.9013,74.77737
Huanggang,Huanggang,366769,Asia/Shanghai,CN,30.45143,114.87035
Olinda,Olinda,366754,America/Recife,BR,-8.00889,-34.85528
Bydgoszcz,Bydgoszcz,366452,Europe/Warsaw,PL,53.1235,18.00762
Bradford,Bradford,366187,Europe/London,GB,53.79391,-1.75206
Etobicoke,Etobicoke,365000,America/Toronto,CA,43.64415,-79.56985
Yenagoa,Yenagoa,365000,Africa/Lagos,NG,4.92675,6.26764
Gboko,Gboko,365000,Africa/Lagos,NG,7.32275,9.00108
Pyeongtaek,Pyeongtaek,364694,Asia/Seoul,KR,36.99472,127.08889
Petare,Petare,364684,America/Caracas,VE,10.47679,-66.80786
Anqiu,Anqiu,364208,Asia/Shanghai,CN,36.43417,119.1925
Larkana,Larkana,364033,Asia/Karachi,PK,27.55898,68.21204
Al Qadarif,Al Qadarif,363945,Africa/Khartoum,SD,14.03493,35.38344
Christchurch,Christchurch,363926,Pacific/Auckland,NZ,-43.53333,172.63333
Cibinong,Cibinong,363424,Asia/Jakarta,ID,-6.48167,106.85417
Brest,Brest,362641,Europe/Minsk,BY,52.09755,23.68775
Jizhou,Jizhou,362013,Asia/Shanghai,CN,37.55054,115.56871
Manukau City,Manukau City,362000,Pacific/Auckland,NZ,-36.99282,174.87986
Blumenau,Blumenau,361855,America/Sao_Paulo,BR,-26.91944,-49.06611
Utrecht,Utrecht,361742,Europe/Amsterdam,NL,52.09083,5.12222
Maradi,Maradi,361702,Africa/Niamey,NE,13.5,7.10174
Ataşehir,Atasehir,361615,Europe/Istanbul,TR,40.9833,29.1167
Bhāgalpur,Bhagalpur,361548,Asia/Kolkata,IN,25.24446,86.97183
Shekhupura,Shekhupura,361303,Asia/Karachi,PK,31.71287,73.98556
Carapicuíba,Carapicuiba,361112,America/Sao_Paulo,BR,-23.52272,-46.835
Wuppertal,Wuppertal,360797,Europe/Berlin,DE,51.25627,7.14816
Ulan-Ude,Ulan-Ude,360278,Asia/Irkutsk,RU,51.82721,107.60627
Nagano,Nagano,360176,Asia/Tokyo,JP,36.65,138.18333
Lublin,Lublin,360044,Europe/Warsaw,PL,51.25,22.56667
Ijebu Ode,Ijebu Ode,360000,Africa/Lagos,NG,6.81944,3.91731
Huocheng,Huocheng,360000,Asia/Urumqi,CN,44.05305,80.87173
Maseru,Maseru,359753,Africa/Maseru,LS,-29.31667,27.48333
Aurora,Aurora,359407,America/Denver,US,39.72943,-104.83192
Sumqayıt,Sumqayit,358675,Asia/Baku,AZ,40.58972,49.66861
Franca,Franca,358539,America/Sao_Paulo,BR,-20.53861,-47.40083
Taraz,Taraz,358153,Asia/Almaty,KZ,42.9,71.36667
Lobito,Lobito,357950,Africa/Luanda,AO,-12.3644,13.53601
San Jose del Monte,San Jose del Monte,357828,Asia/Manila,PH,14.81389,121.04528
Gwangmyeong,Gwangmyeong,357545,Asia/Seoul,KR,37.47722,126.86639
Zanjan,Zanjan,357471,Asia/Tehran,IR,36.67642,48.49628
Neiva,Neiva,357392,America/Bogota,CO,2.9273,-75.28189
Iwaki,Iwaki,357309,Asia/Tokyo,JP,37.05,140.88333
Vladimir,Vladimir,357024,Europe/Moscow,RU,56.13655,40.39658
Tete,Tete,357000,Africa/Maputo,MZ,-16.15639,33.58667
Bacoor,Bacoor,356974,Asia/Manila,PH,14.45896,120.93851
Uruapan,Uruapan,356786,America/Mexico_City,MX,19.41116,-102.05644
Xico,Xico,356352,America/Mexico_City,MX,19.27032,-98.95088
Misratah,Misratah,355657,Africa/Tripoli,LY,32.37535,15.09254
Cuito,Cuito,355423,Africa/Luanda,AO,-12.38333,16.93333
Benito Juarez,Benito Juarez,355017,America/Mexico_City,MX,19.3984,-99.15766
Kyzylorda,Kyzylorda,354800,Asia/Qyzylorda,KZ,44.85278,65.50917
Takatsuki,Takatsuki,354468,Asia/Tokyo,JP,34.84833,135.61678
Villahermosa,Villahermosa,353577,America/Mexico_City,MX,17.98689,-92.93028
Antofagasta,Antofagasta,352638,America/Santiago,CL,-23.65236,-70.3954
Ciudad General Escobedo,Ciudad General Escobedo,352444,America/Monterrey,MX,25.79698,-100.31791
Okazaki,Okazaki,352361,Asia/Tokyo,JP,34.95,137.16667
Bandar Abbas,Bandar Abbas,352173,Asia/Tehran,IR,27.1865,56.2808
Ras Al Khaimah City,Ras Al Khaimah City,351943,Asia/Dubai,AE,25.78953,55.9432
Malmö,Malmoe,351749,Europe/Stockholm,SE,55.60587,13.00073
Suita,Suita,351630,Asia/Tokyo,JP,34.76143,135.51567
Huế,Hue,351456,Asia/Bangkok,VN,16.4619,107.59546
Sejong,Sejong,351007,Asia/Seoul,KR,36.59245,127.29223
Wakayama,Wakayama,351000,Asia/Tokyo,JP,34.23333,135.16667
Anaheim,Anaheim,350742,America/Los_Angeles,US,33.83529,-117.9145
Hualien City,Hualien City,350468,Asia/Taipei,TW,23.97694,121.60444
Lapu-Lapu City,Lapu-Lapu City,350467,Asia/Manila,PH,10.31028,123.94944
Punāsa,Punasa,350000,Asia/Kolkata,IN,22.23507,76.39335
Diepsloot,Diepsloot,350000,Africa/Johannesburg,ZA,-25.93312,28.01213
Pengze,Pengze,350000,Asia/Shanghai,CN,29.89885,116.54572
Bahir Dar,Bahir Dar,350000,Africa/Addis_Ababa,ET,11.59364,37.39077
Quelimane,Quelimane,349842,Africa/Maputo,MZ,-17.87861,36.88833
Arkhangel’sk,Arkhangel'sk,349742,Europe/Moscow,RU,64.54717,40.55291
Muzaffarnagar,Muzaffarnagar,349706,Asia/Kolkata,IN,29.47091,77.70332
Hulunbuir,Hulunbuir,349400,Asia/Shanghai,CN,49.21141,119.75582
Sikasso,Sikasso,349324,Africa/Bamako,ML,11.31755,-5.66654
Sanandaj,Sanandaj,349176,Asia/Tehran,IR,35.31495,46.99883
Chita,Chita,349005,Asia/Chita,RU,52.03171,113.50087
Latur,Latur,348967,Asia/Kolkata,IN,18.39721,76.56784
Campina Grande,Campina Grande,348936,America/Fortaleza,BR,-7.23056,-35.88111
Bimbo,Bimbo,348802,Africa/Bangui,CF,4.25671,18.41583
Newcastle,Newcastle,348539,Australia/Sydney,AU,-32.92953,151.7801
Camagüey,Camagueey,347562,America/Havana,CU,21.38083,-77.91694
Ambon,Ambon,347288,Asia/Jayapura,ID,-3.69583,128.18333
Plovdiv,Plovdiv,346893,Europe/Sofia,BG,42.15,24.75
London,London,346765,America/Toronto,CA,42.98339,-81.23304
Tarsus,Tarsus,346715,Europe/Istanbul,TR,36.91766,34.89277
Chifeng,Chifeng,346654,Asia/Shanghai,CN,42.26833,118.96361
Corrientes,Corrientes,346334,America/Argentina/Cordoba,AR,-27.46784,-58.8344
Hŭngnam,Hungnam,346082,Asia/Pyongyang,KP,39.84198,127.63206
Bilbao,Bilbao,345821,Europe/Madrid,ES,43.26271,-2.92528
Astana,Astana,345604,Asia/Almaty,KZ,51.1801,71.44598
Belfast,Belfast,345418,Europe/London,GB,54.59682,-5.92541
Yunlong,Yunlong,345393,Asia/Shanghai,CN,34.25281,117.25167
Sector 2,Sector 2,345370,Europe/Bucharest,RO,44.4528,26.13321
Koshigaya,Koshigaya,345353,Asia/Tokyo,JP,35.89035,139.78916
Coventry,Coventry,345324,Europe/London,GB,52.40656,-1.51217
Belgorod,Belgorod,345289,Europe/Moscow,RU,50.61074,36.58015
Toamasina,Toamasina,345107,Indian/Antananarivo,MG,-18.1492,49.40234
Kendari,Kendari,345107,Asia/Makassar,ID,-3.9778,122.51507
Kosti,Kosti,345068,Africa/Khartoum,SD,13.1629,32.66347
Qitaihe,Qitaihe,345033,Asia/Shanghai,CN,45.768,130.9953
Doha,Doha,344939,Asia/Qatar,QA,25.28545,51.53096
Nakano,Nakano,344880,Asia/Tokyo,JP,35.70449,139.66946
Turmero,Turmero,344700,America/Caracas,VE,10.22856,-67.47421
Tokorozawa,Tokorozawa,344194,Asia/Tokyo,JP,35.79916,139.46903
Ōtsu,Otsu,343991,Asia/Tokyo,JP,35.0,135.86667
Pizhou,Pizhou,343421,Asia/Shanghai,CN,34.31139,117.95028
Dire Dawa,Dire Dawa,343000,Africa/Addis_Ababa,ET,9.59306,41.86611
Bhimber,Bhimber,342900,Asia/Karachi,PK,32.97465,74.07846
Annaba,Annaba,342703,Africa/Algiers,DZ,36.9,7.76667
Vitebsk,Vitebsk,342700,Europe/Minsk,BY,55.1904,30.2049
Nice,Nice,342669,Europe/Paris,FR,43.70313,7.26608
Iligan,Iligan,342618,Asia/Manila,PH,8.2289,124.24344
Soledad,Soledad,342556,America/Bogota,CO,10.91843,-74.76459
Yangsan,Yangsan,342371,Asia/Seoul,KR,35.34199,129.03358
Temara,Temara,342345,Africa/Casablanca,MA,33.92866,-6.90656
Shiqi,Shiqi,342306,Asia/Shanghai,CN,22.51682,113.38521
Zürich,Zurich,341730,Europe/Zurich,CH,47.36667,8.55
Kūkatpalli,Kukatpalli,341709,Asia/Kolkata,IN,17.48486,78.41376
Vũng Tàu,Vung Tau,341552,Asia/Ho_Chi_Minh,VN,10.34599,107.08426
Laixi,Laixi,341470,Asia/Shanghai,CN,36.85917,120.52694
Jhang Sadr,Jhang Sadr,341210,Asia/Karachi,PK,31.26981,72.31687
Ambattūr,Ambattur,341049,Asia/Kolkata,IN,13.09818,80.16152
Dihok,Dihok,340900,Asia/Baghdad,IQ,36.86709,42.98845
Kaluga,Kaluga,340851,Europe/Moscow,RU,54.5293,36.27542
Celaya,Celaya,340387,America/Mexico_City,MX,20.52353,-100.8157
Serekunda,Serekunda,340000,Africa/Banjul,GM,13.43833,-16.67806
Makiivka,Makiivka,338968,Europe/Kyiv,UA,48.04782,37.92576
West Raleigh,West Raleigh,338759,America/New_York,US,35.78682,-78.66389
Cuernavaca,Cuernavaca,338650,America/Mexico_City,MX,18.9261,-99.23075
Kaesŏng,Kaesong,338155,Asia/Pyongyang,KP,37.97083,126.55444
Kawagoe,Kawagoe,337931,Asia/Tokyo,JP,35.90861,139.48528
Tungi,Tungi,337579,Asia/Dhaka,BD,23.89154,90.40232
Krasnogvargeisky,Krasnogvargeisky,337091,Europe/Moscow,RU,59.97305,30.47607
Randburg,Randburg,337053,Africa/Johannesburg,ZA,-26.0941,28.00123
Safi,Safi,336883,Africa/Casablanca,MA,32.29939,-9.23718
Bellary,Bellary,336681,Asia/Kolkata,IN,15.14205,76.92398
Itaquaquecetuba,Itaquaquecetuba,336679,America/Sao_Paulo,BR,-23.48611,-46.34833
Simferopol,Simferopol,336460,Europe/Simferopol,UA,44.95719,34.11079
Ganja,Ganja,335600,Asia/Baku,AZ,40.68278,46.36056
Santa Ana,Santa Ana,335400,America/Los_Angeles,US,33.74557,-117.86783
San José,San Jose,335007,America/Costa_Rica,CR,9.93333,-84.08333
Alicante,Alicante,334757,Europe/Madrid,ES,38.34517,-0.48149
Tieling,Tieling,333907,Asia/Shanghai,CN,42.29306,123.84139
Qazvin,Qazvin,333635,Asia/Tehran,IR,36.26877,50.0041
Asahikawa,Asahikawa,333530,Asia/Tokyo,JP,43.77063,142.36489
Cirebon,Cirebon,333303,Asia/Jakarta,ID,-6.7063,108.557
Muzaffarpur,Muzaffarpur,333200,Asia/Kolkata,IN,26.12259,85.39055
Kāmārhāti,Kamarhati,332965,Asia/Kolkata,IN,22.67111,88.37472
Tepic,Tepic,332863,America/Mazatlan,MX,21.50951,-104.89569
Wŏnju,Wonju,332849,Asia/Seoul,KR,37.35139,127.94528
Wad Medani,Wad Medani,332714,Africa/Khartoum,SD,14.40118,33.51989
Nukus,Nukus,332500,Asia/Samarkand,UZ,42.45306,59.61028
Montes Claros,Montes Claros,332379,America/Sao_Paulo,BR,-16.735,-43.86167
Ciudad Victoria,Ciudad Victoria,332100,America/Monterrey,MX,23.74174,-99.14599
Soledad de Graciano Sánchez,Soledad de Graciano Sanchez,332072,America/Mexico_City,MX,22.18912,-100.93792
Kochi,Kochi,332059,Asia/Tokyo,JP,33.55,133.53333
Bielefeld,Bielefeld,331906,Europe/Berlin,DE,52.03333,8.53333
Blida,Blida,331779,Africa/Algiers,DZ,36.47004,2.8277
Kwai Chung,Kwai Chung,331600,Asia/Hong_Kong,HK,22.36828,114.13877
Mandaue City,Mandaue City,331320,Asia/Manila,PH,10.32361,123.92222
Khorramshahr,Khorramshahr,330606,Asia/Tehran,IR,30.44079,48.18428
Bonn,Bonn,330579,Europe/Berlin,DE,50.73438,7.09549
Mathura,Mathura,330511,Asia/Kolkata,IN,27.5035,77.67215
Hechi,Hechi,330131,Asia/Shanghai,CN,24.69285,108.08376
Smolensk,Smolensk,330025,Europe/Moscow,RU,54.77944,32.04371
Oral,Oral,330000,Asia/Oral,KZ,51.23333,51.36667
Khorramabad,Khorramabad,329825,Asia/Tehran,IR,33.48778,48.35583
Soyapango,Soyapango,329708,America/El_Salvador,SV,13.71024,-89.13989
Tongshan,Tongshan,329661,Asia/Shanghai,CN,34.18045,117.15707
Patiāla,Patiala,329224,Asia/Kolkata,IN,30.33625,76.3922
Wŏnsan,Wonsan,329207,Asia/Pyongyang,KP,39.15278,127.44361
Brent,Brent,329100,Europe/London,GB,51.55306,-0.3023
Pavlodar,Pavlodar,329002,Asia/Almaty,KZ,52.28333,76.96667
Markham,Markham,328966,America/Toronto,CA,43.86682,-79.2663
Chānda,Chanda,328351,Asia/Kolkata,IN,19.95076,79.29523
Canoas,Canoas,328291,America/Sao_Paulo,BR,-29.91778,-51.18361
Sochi,Sochi,327608,Europe/Moscow,RU,43.59917,39.72569
Cabanatuan City,Cabanatuan City,327325,Asia/Manila,PH,15.48586,120.96648
Chipata,Chipata,327059,Africa/Lusaka,ZM,-13.63333,32.65
Chongjin,Chongjin,327000,Asia/Pyongyang,KP,41.79556,129.77583
Yanji,Yanji,326957,Asia/Shanghai,CN,42.88825,129.50241
Logan City,Logan City,326615,Australia/Brisbane,AU,-27.63917,153.10944
Corpus Christi,Corpus Christi,326586,America/Chicago,US,27.80058,-97.39638
Bhīlwāra,Bhilwara,326431,Asia/Kolkata,IN,25.34707,74.64081
Roodepoort,Roodepoort,326416,Africa/Johannesburg,ZA,-26.1625,27.8725
Pucallpa,Pucallpa,326040,America/Lima,PE,-8.37915,-74.55387
Mogi das Cruzes,Mogi das Cruzes,325746,America/Sao_Paulo,BR,-23.52278,-46.18833
Córdoba,Cordoba,325708,Europe/Madrid,ES,37.89155,-4.77275
Birkenhead,Birkenhead,325264,Europe/London,GB,53.39337,-3.01479
Cotabato,Cotabato,325079,Asia/Manila,PH,7.22361,124.24639
Ilesa,Ilesa,325000,Africa/Lagos,NG,7.62789,4.74161
Brahmapur,Brahmapur,324726,Asia/Kolkata,IN,19.31151,84.7929
São Vicente,Sao Vicente,324457,America/Sao_Paulo,BR,-23.96306,-46.39194
Kikuyu,Kikuyu,323881,Africa/Nairobi,KE,-1.24627,36.66291
Lincang,Lincang,323708,Asia/Shanghai,CN,23.87972,100.09455
Nottingham,Nottingham,323632,Europe/London,GB,52.9536,-1.15047
Al ‘Amārah,Al 'Amarah,323302,Asia/Baghdad,IQ,31.83561,47.14483
Volzhsky,Volzhsky,323293,Europe/Volgograd,RU,48.78583,44.77973
Kōriyama,Koriyama,322996,Asia/Tokyo,JP,37.4,140.38333
Xingyi,Xingyi,322890,Asia/Shanghai,CN,25.09617,104.90639
Guarujá,Guaruja,322750,America/Sao_Paulo,BR,-23.99306,-46.25639
Uíge,Uige,322531,Africa/Luanda,AO,-7.60874,15.06131
Riverside,Riverside,322424,America/Los_Angeles,US,33.95335,-117.39616
Ixtapaluca,Ixtapaluca,322271,America/Mexico_City,MX,19.31556,-98.88284
Osh,Osh,322164,Asia/Bishkek,KG,40.52828,72.7985
Portoviejo,Portoviejo,321800,America/Guayaquil,EC,-1.05458,-80.45445
Villavicencio,Villavicencio,321717,America/Bogota,CO,4.142,-73.62664
Jundiaí,Jundiai,321589,America/Sao_Paulo,BR,-23.18639,-46.88417
San Miguelito,San Miguelito,321501,America/Panama,PA,9.05032,-79.47068
Pelotas,Pelotas,320674,America/Sao_Paulo,BR,-31.76997,-52.34101
Shāhjānpur,Shahjanpur,320434,Asia/Kolkata,IN,27.88165,79.90918
Anápolis,Anapolis,319587,America/Sao_Paulo,BR,-16.32667,-48.95278
Shimoga,Shimoga,319550,Asia/Kolkata,IN,13.93157,75.56791
Islington,Islington,319143,Europe/London,GB,51.53622,-0.10304
Holguín,Holguin,319102,America/Havana,CU,20.88722,-76.26306
Ust-Kamenogorsk,Ust-Kamenogorsk,319067,Asia/Almaty,KZ,49.97143,82.60586
Tsuen Wan,Tsuen Wan,318916,Asia/Hong_Kong,HK,22.37137,114.11329
Zinder,Zinder,318874,Africa/Niamey,NE,13.80716,8.9881
Saransk,Saransk,318841,Europe/Moscow,RU,54.1838,45.1749
Nantes,Nantes,318808,Europe/Paris,FR,47.21725,-1.55336
Ad Dīwānīyah,Ad Diwaniyah,318801,Asia/Baghdad,IQ,31.99289,44.92552
Marne La Vallée,Marne La Vallee,318325,Europe/Paris,FR,48.83584,2.64241
Damanhur,Damanhur,318207,Africa/Cairo,EG,31.03408,30.46823
Popayán,Popayan,318059,America/Bogota,CO,2.43823,-76.61316
Reading,Reading,318014,Europe/London,GB,51.45625,-0.97113
Taubaté,Taubate,317915,America/Sao_Paulo,BR,-23.02639,-45.55528
